{"type": "FeatureCollection", "features": [{"type":"Feature","geometry":{"type":"Point","coordinates":[-90.258812,38.546627]},"properties":{"store_name":"Family Dollar Store 8943","longitude":"-90.258812","latitude":"38.546627","address":"7700 S Broadway","city":"Saint Louis","state":"MO","zip5":"63111","county":"ST LOUIS CITY","created_at":"2014-01-22T19:27:46Z","updated_at":"2014-02-05T23:15:28Z","category":"Convenience/Corner/Liquor Store","cartodb_id":483,"description":null,"website":null}},{"type":"Feature","geometry":{"type":"Point","coordinates":[-90.279678,38.610077]},"properties":{"store_name":"Save A Lot 24487","longitude":"-90.279678","latitude":"38.610077","address":"5437 Southwest Ave","city":"Saint Louis","state":"MO","zip5":"63139","county":"ST LOUIS CITY","created_at":"2014-01-22T19:27:46Z","updated_at":"2014-05-13T15:48:41Z","category":"Supermarket","cartodb_id":40,"description":null,"website":null}},{"type":"Feature","geometry":{"type":"Point","coordinates":[-90.211258,38.668716]},"properties":{"store_name":"Family Dollar Store 1559","longitude":"-90.211258","latitude":"38.668716","address":"4314 N Grand Blvd","city":"Saint Louis","state":"MO","zip5":"63107","county":"ST LOUIS CITY","created_at":"2014-01-22T19:27:46Z","updated_at":"2014-02-05T23:02:34Z","category":"Discount Store","cartodb_id":91,"description":null,"website":null}},{"type":"Feature","geometry":{"type":"Point","coordinates":[-90.24334,38.655724]},"properties":{"store_name":"Martins Market","longitude":"-90.24334","latitude":"38.655724","address":"4324 Dr Martin Luther King Dr","city":"Saint Louis","state":"MO","zip5":"63113","county":"ST LOUIS CITY","created_at":"2014-01-22T19:27:46Z","updated_at":"2014-02-05T02:51:50Z","category":"Convenience/Corner/Liquor Store","cartodb_id":75,"description":null,"website":null}},{"type":"Feature","geometry":{"type":"Point","coordinates":[-90.280846,38.573719]},"properties":{"store_name":"Walgreens 1679","longitude":"-90.280846","latitude":"38.573719","address":"6411 Gravois Ave","city":"Saint Louis","state":"MO","zip5":"63116","county":"ST LOUIS CITY","created_at":"2014-01-22T19:27:46Z","updated_at":"2014-02-04T18:49:02Z","category":"Drugstore","cartodb_id":21,"description":null,"website":null}},{"type":"Feature","geometry":{"type":"Point","coordinates":[-90.251259,38.676872]},"properties":{"store_name":"Walgreens 7296","longitude":"-90.251259","latitude":"38.676872","address":"3720 N Kingshighway Blvd","city":"Saint Louis","state":"MO","zip5":"63115","county":"ST LOUIS CITY","created_at":"2014-01-22T19:27:46Z","updated_at":"2014-02-04T18:48:18Z","category":"Drugstore","cartodb_id":11,"description":null,"website":null}},{"type":"Feature","geometry":{"type":"Point","coordinates":[-90.251999,38.676487]},"properties":{"store_name":"Kingshighway Amoco","longitude":"-90.251999","latitude":"38.676487","address":"5003 Natural Bridge Ave","city":"Saint Louis","state":"MO","zip5":"63115","county":"ST LOUIS CITY","created_at":"2014-01-22T19:27:46Z","updated_at":"2014-02-05T00:25:35Z","category":"Gas Station Food Mart","cartodb_id":25,"description":null,"website":null}},{"type":"Feature","geometry":{"type":"Point","coordinates":[-90.272171,38.592953]},"properties":{"store_name":"QuikTrip 648","longitude":"-90.272171","latitude":"38.592953","address":"3710 S Kingshighway Blvd","city":"Saint Louis","state":"MO","zip5":"63109","county":"ST LOUIS CITY","created_at":"2014-01-22T19:27:46Z","updated_at":"2014-02-05T00:31:03Z","category":"Gas Station Food Mart","cartodb_id":38,"description":null,"website":null}},{"type":"Feature","geometry":{"type":"Point","coordinates":[-90.287132,38.62978]},"properties":{"store_name":"Mobil Gas & Mart","longitude":"-90.287132","latitude":"38.62978","address":"1051 Hampton Ave","city":"Saint Louis","state":"MO","zip5":"63139","county":"ST LOUIS CITY","created_at":"2014-01-22T19:27:46Z","updated_at":"2014-02-05T00:31:44Z","category":"Gas Station Food Mart","cartodb_id":41,"description":null,"website":null}},{"type":"Feature","geometry":{"type":"Point","coordinates":[-90.244026,38.590866]},"properties":{"store_name":"Family Dollar Store 1793","longitude":"-90.244026","latitude":"38.590866","address":"3636 S Grand Blvd","city":"Saint Louis","state":"MO","zip5":"63118","county":"ST LOUIS CITY","created_at":"2014-01-22T19:27:46Z","updated_at":"2014-02-05T02:54:00Z","category":"Discount Store","cartodb_id":88,"description":null,"website":null}},{"type":"Feature","geometry":{"type":"Point","coordinates":[-90.204964,38.638313]},"properties":{"store_name":"Smiths Superette","longitude":"-90.204964","latitude":"38.638313","address":"1912 Carr Dr","city":"Saint Louis","state":"MO","zip5":"63106","county":"ST LOUIS CITY","created_at":"2014-01-22T19:27:46Z","updated_at":"2014-02-05T00:25:01Z","category":"Superette/Small Grocery","cartodb_id":23,"description":null,"website":null}},{"type":"Feature","geometry":{"type":"Point","coordinates":[-90.207382,38.619926]},"properties":{"store_name":"Salama Supermarket","longitude":"-90.207382","latitude":"38.619926","address":"1525 Chouteau Ave","city":"Saint Louis","state":"MO","zip5":"63103","county":"ST LOUIS CITY","created_at":"2014-01-22T19:27:46Z","updated_at":"2014-02-05T00:38:05Z","category":"Superette/Small Grocery","cartodb_id":42,"description":"(314) 436-7704","website":null}},{"type":"Feature","geometry":{"type":"Point","coordinates":[-90.253067,38.570068]},"properties":{"store_name":"Carniceria Latino Americana","longitude":"-90.253067","latitude":"38.570068","address":"5412 S Grand Blvd","city":"Saint Louis","state":"MO","zip5":"63111","county":"ST LOUIS CITY","created_at":"2014-01-22T19:27:46Z","updated_at":"2014-02-05T01:23:35Z","category":"Superette/Small Grocery","cartodb_id":45,"description":"(314) 481-3665","website":null}},{"type":"Feature","geometry":{"type":"Point","coordinates":[-90.271675,38.593884]},"properties":{"store_name":"Dollar Tree 1768","longitude":"-90.271675","latitude":"38.593884","address":"3637 S Kingshighway Blvd","city":"Saint Louis","state":"MO","zip5":"63109","county":"ST LOUIS CITY","created_at":"2014-01-22T19:27:46Z","updated_at":"2014-02-05T02:28:10Z","category":"Discount Store","cartodb_id":67,"description":null,"website":null}},{"type":"Feature","geometry":{"type":"Point","coordinates":[-90.255569,38.621258]},"properties":{"store_name":"Regal Meat Market Inc","longitude":"-90.255569","latitude":"38.621258","address":"1532 Tower Grove Ave","city":"Saint Louis","state":"MO","zip5":"63110","county":"ST LOUIS CITY","created_at":"2014-01-22T19:27:46Z","updated_at":"2014-02-05T02:48:30Z","category":"Convenience/Corner/Liquor Store","cartodb_id":71,"description":null,"website":null}},{"type":"Feature","geometry":{"type":"Point","coordinates":[-90.229286,38.642498]},"properties":{"store_name":"Grand Market","longitude":"-90.229286","latitude":"38.642498","address":"1015 N Grand Blvd","city":"Saint Louis","state":"MO","zip5":"63106","county":"ST LOUIS CITY","created_at":"2014-01-22T19:27:46Z","updated_at":"2014-02-05T02:53:39Z","category":"Convenience/Corner/Liquor Store","cartodb_id":80,"description":null,"website":null}},{"type":"Feature","geometry":{"type":"Point","coordinates":[-90.202736,38.673855]},"properties":{"store_name":"Gas Mart 6","longitude":"-90.202736","latitude":"38.673855","address":"209 E Grand Ave","city":"Saint Louis","state":"MO","zip5":"63147","county":"ST LOUIS CITY","created_at":"2014-01-22T19:27:46Z","updated_at":"2014-02-05T02:49:03Z","category":"Gas Station Food Mart","cartodb_id":73,"description":null,"website":null}},{"type":"Feature","geometry":{"type":"Point","coordinates":[-90.262688,38.656254]},"properties":{"store_name":"King Market Inc","longitude":"-90.262688","latitude":"38.656254","address":"1112 N Kingshighway Blvd","city":"Saint Louis","state":"MO","zip5":"63113","county":"ST LOUIS CITY","created_at":"2014-01-22T19:27:46Z","updated_at":"2014-02-05T02:50:17Z","category":"Convenience/Corner/Liquor Store","cartodb_id":74,"description":null,"website":null}},{"type":"Feature","geometry":{"type":"Point","coordinates":[-90.225563,38.593075]},"properties":{"store_name":"Family Dollar Store 2199","longitude":"-90.225563","latitude":"38.593075","address":"3411 S Jefferson Ave","city":"Saint Louis","state":"MO","zip5":"63118","county":"ST LOUIS CITY","created_at":"2014-01-22T19:27:46Z","updated_at":"2014-02-05T02:53:53Z","category":"Discount Store","cartodb_id":83,"description":null,"website":null}},{"type":"Feature","geometry":{"type":"Point","coordinates":[-90.265221,38.582874]},"properties":{"store_name":"Family Dollar Store 2594","longitude":"-90.265221","latitude":"38.582874","address":"4645 Gravois Ave","city":"Saint Louis","state":"MO","zip5":"63116","county":"ST LOUIS CITY","created_at":"2014-01-22T19:27:46Z","updated_at":"2014-02-05T02:53:56Z","category":"Discount Store","cartodb_id":86,"description":null,"website":null}},{"type":"Feature","geometry":{"type":"Point","coordinates":[-90.241402,38.580563]},"properties":{"store_name":"Tawakal Halal Grocery","longitude":"-90.241402","latitude":"38.580563","address":"3308 Meramec St","city":"Saint Louis","state":"MO","zip5":"63118","county":"ST LOUIS CITY","created_at":"2014-01-22T19:27:46Z","updated_at":"2014-02-05T16:25:15Z","category":"Superette/Small Grocery","cartodb_id":68,"description":"Phone: 314-752-5633; East African and Somali cuisine","website":null}},{"type":"Feature","geometry":{"type":"Point","coordinates":[-90.196358,38.632511]},"properties":{"store_name":"Johns Market","longitude":"-90.196358","latitude":"38.632511","address":"704 N Tucker Blvd","city":"Saint Louis","state":"MO","zip5":"63101","county":"ST LOUIS CITY","created_at":"2014-01-22T19:27:46Z","updated_at":"2014-02-05T23:17:02Z","category":"Convenience/Corner/Liquor Store","cartodb_id":670,"description":null,"website":null}},{"type":"Feature","geometry":{"type":"Point","coordinates":[-90.252655,38.556553]},"properties":{"store_name":"Michigan Market","longitude":"-90.252655","latitude":"38.556553","address":"6601 Michigan Ave","city":"Saint Louis","state":"MO","zip5":"63111","county":"ST LOUIS CITY","created_at":"2014-01-22T19:27:46Z","updated_at":"2014-02-05T03:29:08Z","category":"Convenience/Corner/Liquor Store","cartodb_id":149,"description":null,"website":null}},{"type":"Feature","geometry":{"type":"Point","coordinates":[-90.24382,38.571861]},"properties":{"store_name":"Virginia Market","longitude":"-90.24382","latitude":"38.571861","address":"4661 Virginia Ave","city":"Saint Louis","state":"MO","zip5":"63111","county":"ST LOUIS CITY","created_at":"2014-01-22T19:27:46Z","updated_at":"2014-02-05T03:00:00Z","category":"Superette/Small Grocery","cartodb_id":115,"description":"Market and Deli, 314-353-1111","website":null}},{"type":"Feature","geometry":{"type":"Point","coordinates":[-90.291901,38.65477]},"properties":{"store_name":"Family Dollar Store 1590","longitude":"-90.291901","latitude":"38.65477","address":"5935 Delmar Blvd","city":"Saint Louis","state":"MO","zip5":"63112","county":"ST LOUIS CITY","created_at":"2014-01-22T19:27:46Z","updated_at":"2014-02-04T17:55:40Z","category":"Discount Store","cartodb_id":101,"description":null,"website":null}},{"type":"Feature","geometry":{"type":"Point","coordinates":[-90.278206,38.653458]},"properties":{"store_name":"D & D Food Mart","longitude":"-90.278206","latitude":"38.653458","address":"5459 Delmar Blvd","city":"Saint Louis","state":"MO","zip5":"63112","county":"ST LOUIS CITY","created_at":"2014-01-22T19:27:46Z","updated_at":"2014-02-05T03:37:40Z","category":"Convenience/Corner/Liquor Store","cartodb_id":151,"description":null,"website":null}},{"type":"Feature","geometry":{"type":"Point","coordinates":[-90.24675,38.591892]},"properties":{"store_name":"Nasiib Halal Store","longitude":"-90.24675","latitude":"38.591892","address":"3702 Gravois Ave","city":"Saint Louis","state":"MO","zip5":"63116","county":"ST LOUIS CITY","created_at":"2014-01-22T19:27:46Z","updated_at":"2014-02-05T17:26:53Z","category":"Convenience/Corner/Liquor Store","cartodb_id":194,"description":"(314) 771-3487","website":null}},{"type":"Feature","geometry":{"type":"Point","coordinates":[-90.22258,38.607437]},"properties":{"store_name":"Conoco","longitude":"-90.22258","latitude":"38.607437","address":"2323 S Jefferson Ave","city":"Saint Louis","state":"MO","zip5":"63104","county":"ST LOUIS CITY","created_at":"2014-01-22T19:27:46Z","updated_at":"2014-02-05T02:56:22Z","category":"Gas Station Food Mart","cartodb_id":112,"description":null,"website":null}},{"type":"Feature","geometry":{"type":"Point","coordinates":[-90.242683,38.600334]},"properties":{"store_name":"Vine Mediterranean Grocery & Meats","longitude":"-90.242683","latitude":"38.600334","address":"3171 S Grand Blvd","city":"Saint Louis","state":"MO","zip5":"63118","county":"ST LOUIS CITY","created_at":"2014-01-22T19:27:46Z","updated_at":"2014-02-05T03:15:18Z","category":"Superette/Small Grocery","cartodb_id":122,"description":"Mediterranean Grocery Store","website":null}},{"type":"Feature","geometry":{"type":"Point","coordinates":[-90.272057,38.577835]},"properties":{"store_name":"7 Eleven Store 29046","longitude":"-90.272057","latitude":"38.577835","address":"5604 Gravois Ave","city":"Saint Louis","state":"MO","zip5":"63116","county":"ST LOUIS CITY","created_at":"2014-01-22T19:27:46Z","updated_at":"2014-02-05T17:46:15Z","category":"Convenience/Corner/Liquor Store","cartodb_id":211,"description":null,"website":null}},{"type":"Feature","geometry":{"type":"Point","coordinates":[-90.200151,38.610513]},"properties":{"store_name":"Just Produce","longitude":"-90.20015","latitude":"38.610516","address":"730 Carroll St","city":"Saint Louis","state":"MO","zip5":"63104","county":"ST LOUIS CITY","created_at":"2014-01-22T19:27:46Z","updated_at":"2014-07-29T16:41:35Z","category":"Farmers Market/Farm","cartodb_id":150,"description":"Soulard Farmers Market","website":null}},{"type":"Feature","geometry":{"type":"Point","coordinates":[-90.231026,38.578045]},"properties":{"store_name":"Family Dollar Store 3598","longitude":"-90.231026","latitude":"38.578045","address":"4250 S Broadway","city":"Saint Louis","state":"MO","zip5":"63111","county":"ST LOUIS CITY","created_at":"2014-01-22T19:27:46Z","updated_at":"2014-02-05T02:54:09Z","category":"Discount Store","cartodb_id":93,"description":null,"website":null}},{"type":"Feature","geometry":{"type":"Point","coordinates":[-90.276543,38.584435]},"properties":{"store_name":"Family Dollar Store 6446","longitude":"-90.276543","latitude":"38.584435","address":"4930 Christy Blvd","city":"Saint Louis","state":"MO","zip5":"63116","county":"ST LOUIS CITY","created_at":"2014-01-22T19:27:46Z","updated_at":"2014-02-05T02:54:12Z","category":"Discount Store","cartodb_id":94,"description":null,"website":null}},{"type":"Feature","geometry":{"type":"Point","coordinates":[-90.287262,38.67495]},"properties":{"store_name":"Family Dollar Store 5929","longitude":"-90.287262","latitude":"38.67495","address":"6215 Wells Ave","city":"Saint Louis","state":"MO","zip5":"63133","county":"ST LOUIS","created_at":"2014-01-22T19:27:46Z","updated_at":"2014-02-05T02:54:15Z","category":"Discount Store","cartodb_id":95,"description":null,"website":null}},{"type":"Feature","geometry":{"type":"Point","coordinates":[-90.260155,38.662617]},"properties":{"store_name":"Family Dollar Store 1562","longitude":"-90.260155","latitude":"38.662617","address":"4949 Dr Martin Luther King Dr","city":"Saint Louis","state":"MO","zip5":"63113","county":"ST LOUIS CITY","created_at":"2014-01-22T19:27:46Z","updated_at":"2014-02-05T02:54:20Z","category":"Discount Store","cartodb_id":97,"description":null,"website":null}},{"type":"Feature","geometry":{"type":"Point","coordinates":[-90.252563,38.675632]},"properties":{"store_name":"Family Dollar Store 6038","longitude":"-90.252563","latitude":"38.675632","address":"3501 N Kingshwy Blvd","city":"Saint Louis","state":"MO","zip5":"63115","county":"ST LOUIS CITY","created_at":"2014-01-22T19:27:46Z","updated_at":"2014-02-05T02:55:56Z","category":"Discount Store","cartodb_id":102,"description":null,"website":null}},{"type":"Feature","geometry":{"type":"Point","coordinates":[-90.22493,38.72617]},"properties":{"store_name":"Family Dollar Store 1301","longitude":"-90.22493","latitude":"38.72617","address":"8971 Hall St","city":"Saint Louis","state":"MO","zip5":"63147","county":"ST LOUIS CITY","created_at":"2014-01-22T19:27:46Z","updated_at":"2014-02-05T02:56:00Z","category":"Discount Store","cartodb_id":103,"description":null,"website":null}},{"type":"Feature","geometry":{"type":"Point","coordinates":[-90.247345,38.690426]},"properties":{"store_name":"Family Dollar Store 6181","longitude":"-90.247345","latitude":"38.690426","address":"5000 Union Blvd","city":"Saint Louis","state":"MO","zip5":"63115","county":"ST LOUIS CITY","created_at":"2014-01-22T19:27:46Z","updated_at":"2014-02-05T02:56:05Z","category":"Discount Store","cartodb_id":107,"description":null,"website":null}},{"type":"Feature","geometry":{"type":"Point","coordinates":[-90.274689,38.688747]},"properties":{"store_name":"Family Dollar Store 6829","longitude":"-90.274689","latitude":"38.688747","address":"6000 Natural Bridge Ave","city":"Saint Louis","state":"MO","zip5":"63120","county":"ST LOUIS CITY","created_at":"2014-01-22T19:27:46Z","updated_at":"2014-02-05T02:56:08Z","category":"Discount Store","cartodb_id":109,"description":null,"website":null}},{"type":"Feature","geometry":{"type":"Point","coordinates":[-90.309242,38.615425]},"properties":{"store_name":"Family Dollar Store 7813","longitude":"-90.309242","latitude":"38.615425","address":"2321 McCausland Ave","city":"Saint Louis","state":"MO","zip5":"63143","county":"ST LOUIS","created_at":"2014-01-22T19:27:46Z","updated_at":"2014-02-05T02:56:11Z","category":"Discount Store","cartodb_id":110,"description":null,"website":null}},{"type":"Feature","geometry":{"type":"Point","coordinates":[-90.228477,38.648617]},"properties":{"store_name":"Family Dollar Store 7317","longitude":"-90.228477","latitude":"38.648617","address":"3731 Dr Martin Luther King Dr","city":"Saint Louis","state":"MO","zip5":"63113","county":"ST LOUIS CITY","created_at":"2014-01-22T19:27:46Z","updated_at":"2014-02-05T02:56:15Z","category":"Discount Store","cartodb_id":111,"description":null,"website":null}},{"type":"Feature","geometry":{"type":"Point","coordinates":[-90.234062,38.579723]},"properties":{"store_name":"Thamina LLC","longitude":"-90.234062","latitude":"38.579723","address":"2821 Meramec St","city":"Saint Louis","state":"MO","zip5":"63118","county":"ST LOUIS CITY","created_at":"2014-01-22T19:27:46Z","updated_at":"2014-02-05T02:59:04Z","category":"Superette/Small Grocery","cartodb_id":113,"description":null,"website":null}},{"type":"Feature","geometry":{"type":"Point","coordinates":[-90.261635,38.662243]},"properties":{"store_name":"H & R Grocery","longitude":"-90.261635","latitude":"38.662243","address":"1408 N Kingshighway Blvd","city":"Saint Louis","state":"MO","zip5":"63113","county":"ST LOUIS CITY","created_at":"2014-01-22T19:27:46Z","updated_at":"2014-02-05T03:05:22Z","category":"Convenience/Corner/Liquor Store","cartodb_id":116,"description":null,"website":null}},{"type":"Feature","geometry":{"type":"Point","coordinates":[-90.194153,38.640614]},"properties":{"store_name":"Noor Market","longitude":"-90.194153","latitude":"38.640614","address":"1438B N 13th St","city":"Saint Louis","state":"MO","zip5":"63106","county":"ST LOUIS CITY","created_at":"2014-01-22T19:27:46Z","updated_at":"2014-02-05T03:06:50Z","category":"Convenience/Corner/Liquor Store","cartodb_id":117,"description":null,"website":null}},{"type":"Feature","geometry":{"type":"Point","coordinates":[-90.219208,38.672184]},"properties":{"store_name":"Andres Package Liquor Inc","longitude":"-90.219208","latitude":"38.672184","address":"4341 Warne Ave","city":"Saint Louis","state":"MO","zip5":"63107","county":"ST LOUIS CITY","created_at":"2014-01-22T19:27:46Z","updated_at":"2014-02-05T03:07:09Z","category":"Convenience/Corner/Liquor Store","cartodb_id":119,"description":null,"website":null}},{"type":"Feature","geometry":{"type":"Point","coordinates":[-90.282936,38.666798]},"properties":{"store_name":"Sandwich Depot LLC","longitude":"-90.282936","latitude":"38.666798","address":"5753 Page Blvd","city":"Saint Louis","state":"MO","zip5":"63112","county":"ST LOUIS CITY","created_at":"2014-01-22T19:27:46Z","updated_at":"2014-02-05T03:12:04Z","category":"Convenience/Corner/Liquor Store","cartodb_id":120,"description":"(314) 381-0393, Deli","website":null}},{"type":"Feature","geometry":{"type":"Point","coordinates":[-90.30909,38.616611]},"properties":{"store_name":"McCausland Auto Center","longitude":"-90.30909","latitude":"38.616611","address":"7003 Manchester Ave","city":"Saint Louis","state":"MO","zip5":"63143","county":"ST LOUIS","created_at":"2014-01-22T19:27:46Z","updated_at":"2014-02-05T03:17:29Z","category":"Gas Station Food Mart","cartodb_id":129,"description":null,"website":null}},{"type":"Feature","geometry":{"type":"Point","coordinates":[-90.252464,38.670235]},"properties":{"store_name":"Salama Supermarket","longitude":"-90.252464","latitude":"38.670235","address":"4873 Saint Louis Ave","city":"Saint Louis","state":"MO","zip5":"63115","county":"ST LOUIS CITY","created_at":"2014-01-22T19:27:46Z","updated_at":"2014-02-05T03:21:21Z","category":"Convenience/Corner/Liquor Store","cartodb_id":135,"description":null,"website":null}},{"type":"Feature","geometry":{"type":"Point","coordinates":[-90.196251,38.633015]},"properties":{"store_name":"Tucker Shell","longitude":"-90.196251","latitude":"38.633015","address":"721 N Tucker Blvd","city":"Saint Louis","state":"MO","zip5":"63101","county":"ST LOUIS CITY","created_at":"2014-01-22T19:27:46Z","updated_at":"2014-02-05T03:21:32Z","category":"Gas Station Food Mart","cartodb_id":136,"description":null,"website":null}},{"type":"Feature","geometry":{"type":"Point","coordinates":[-90.241325,38.607193]},"properties":{"store_name":"ALPS","longitude":"-90.241325","latitude":"38.607193","address":"2700 S Grand Blvd","city":"Saint Louis","state":"MO","zip5":"63118","county":"ST LOUIS CITY","created_at":"2014-01-22T19:27:46Z","updated_at":"2014-02-05T03:28:17Z","category":"Discount Store","cartodb_id":145,"description":null,"website":null}},{"type":"Feature","geometry":{"type":"Point","coordinates":[-90.241379,38.716457]},"properties":{"store_name":"6 Stars Market","longitude":"-90.241379","latitude":"38.716457","address":"8701 Riverview Blvd","city":"Saint Louis","state":"MO","zip5":"63147","county":"ST LOUIS CITY","created_at":"2014-01-22T19:27:46Z","updated_at":"2014-02-05T03:37:25Z","category":"Convenience/Corner/Liquor Store","cartodb_id":153,"description":null,"website":null}},{"type":"Feature","geometry":{"type":"Point","coordinates":[-90.253235,38.66003]},"properties":{"store_name":"Mitchells Package Liquor","longitude":"-90.253235","latitude":"38.66003","address":"4674 Dr Martin Luther King Dr","city":"Saint Louis","state":"MO","zip5":"63113","county":"ST LOUIS CITY","created_at":"2014-01-22T19:27:46Z","updated_at":"2014-02-05T17:46:32Z","category":"Convenience/Corner/Liquor Store","cartodb_id":213,"description":null,"website":null}},{"type":"Feature","geometry":{"type":"Point","coordinates":[-90.264465,38.645447]},"properties":{"store_name":"Straub's 3","longitude":"-90.264465","latitude":"38.645447","address":"302 N Kingshighway Blvd","city":"Saint Louis","state":"MO","zip5":"63108","county":"ST LOUIS CITY","created_at":"2014-01-22T19:27:46Z","updated_at":"2014-01-28T17:43:55Z","category":"Supermarket","cartodb_id":197,"description":null,"website":null}},{"type":"Feature","geometry":{"type":"Point","coordinates":[-90.193512,38.628975]},"properties":{"store_name":"Schnucks 301","longitude":"-90.193512","latitude":"38.628975","address":"315 N 9th St","city":"Saint Louis","state":"MO","zip5":"63101","county":"ST LOUIS CITY","created_at":"2014-01-22T19:27:46Z","updated_at":"2014-01-28T17:51:33Z","category":"Supermarket","cartodb_id":214,"description":null,"website":null}},{"type":"Feature","geometry":{"type":"Point","coordinates":[-90.244698,38.58326]},"properties":{"store_name":"African Grocery Store","longitude":"-90.244698","latitude":"38.58326","address":"4075 S Grand Blvd","city":"Saint Louis","state":"MO","zip5":"63118","county":"ST LOUIS CITY","created_at":"2014-01-22T19:27:46Z","updated_at":"2014-02-05T16:28:40Z","category":"Superette/Small Grocery","cartodb_id":287,"description":"(314) 761-1301, International Food Store","website":null}},{"type":"Feature","geometry":{"type":"Point","coordinates":[-90.262215,38.651455]},"properties":{"store_name":"Dollar General 12068","longitude":"-90.262215","latitude":"38.651455","address":"4956 Delmar Blvd","city":"Saint Louis","state":"MO","zip5":"63108","county":"ST LOUIS CITY","created_at":"2014-01-22T19:27:46Z","updated_at":"2014-02-04T18:04:13Z","category":"Discount Store","cartodb_id":247,"description":null,"website":null}},{"type":"Feature","geometry":{"type":"Point","coordinates":[-90.232635,38.576675]},"properties":{"store_name":"Sinclair Broadway","longitude":"-90.232635","latitude":"38.576675","address":"4355 S Broadway","city":"Saint Louis","state":"MO","zip5":"63111","county":"ST LOUIS CITY","created_at":"2014-01-22T19:27:46Z","updated_at":"2014-02-05T15:21:41Z","category":"Gas Station Food Mart","cartodb_id":195,"description":null,"website":null}},{"type":"Feature","geometry":{"type":"Point","coordinates":[-90.263252,38.542717]},"properties":{"store_name":"Circle K 1633","longitude":"-90.263252","latitude":"38.542717","address":"8200 S Broadway","city":"Saint Louis","state":"MO","zip5":"63111","county":"ST LOUIS CITY","created_at":"2014-01-22T19:27:46Z","updated_at":"2014-02-05T03:21:43Z","category":"Gas Station Food Mart","cartodb_id":141,"description":null,"website":null}},{"type":"Feature","geometry":{"type":"Point","coordinates":[-90.252045,38.659504]},"properties":{"store_name":"Crown Mart of MO Inc","longitude":"-90.252045","latitude":"38.659504","address":"4608 Dr Martin Luther King Dr","city":"Saint Louis","state":"MO","zip5":"63113","county":"ST LOUIS CITY","created_at":"2014-01-22T19:27:46Z","updated_at":"2014-02-05T03:21:50Z","category":"Gas Station Food Mart","cartodb_id":143,"description":null,"website":null}},{"type":"Feature","geometry":{"type":"Point","coordinates":[-90.234131,38.633583]},"properties":{"store_name":"Circle K 1618","longitude":"-90.234131","latitude":"38.633583","address":"35 S Grand Blvd","city":"Saint Louis","state":"MO","zip5":"63103","county":"ST LOUIS CITY","created_at":"2014-01-22T19:27:46Z","updated_at":"2014-02-05T03:38:02Z","category":"Gas Station Food Mart","cartodb_id":157,"description":null,"website":null}},{"type":"Feature","geometry":{"type":"Point","coordinates":[-90.300095,38.65554]},"properties":{"store_name":"Circle K 1619","longitude":"-90.300095","latitude":"38.65554","address":"6211 Delmar Blvd","city":"Saint Louis","state":"MO","zip5":"63130","county":"ST LOUIS","created_at":"2014-01-22T19:27:46Z","updated_at":"2014-02-05T03:38:11Z","category":"Gas Station Food Mart","cartodb_id":158,"description":null,"website":null}},{"type":"Feature","geometry":{"type":"Point","coordinates":[-90.287254,38.6171]},"properties":{"store_name":"Circle K 1653","longitude":"-90.287254","latitude":"38.6171","address":"2105 Hampton Ave","city":"Saint Louis","state":"MO","zip5":"63139","county":"ST LOUIS CITY","created_at":"2014-01-22T19:27:46Z","updated_at":"2014-02-05T03:38:14Z","category":"Gas Station Food Mart","cartodb_id":166,"description":null,"website":null}},{"type":"Feature","geometry":{"type":"Point","coordinates":[-90.213837,38.621204]},"properties":{"store_name":"Midwest Petroleum/Phillips 66 07","longitude":"-90.213837","latitude":"38.621204","address":"2110 Chouteau Ave","city":"Saint Louis","state":"MO","zip5":"63103","county":"ST LOUIS CITY","created_at":"2014-01-22T19:27:46Z","updated_at":"2014-02-05T15:27:31Z","category":"Gas Station Food Mart","cartodb_id":200,"description":null,"website":null}},{"type":"Feature","geometry":{"type":"Point","coordinates":[-90.217262,38.628162]},"properties":{"store_name":"Crown Mart","longitude":"-90.217262","latitude":"38.628162","address":"300 S Jefferson Ave","city":"Saint Louis","state":"MO","zip5":"63103","county":"ST LOUIS CITY","created_at":"2014-01-22T19:27:46Z","updated_at":"2014-02-05T15:29:12Z","category":"Gas Station Food Mart","cartodb_id":232,"description":null,"website":null}},{"type":"Feature","geometry":{"type":"Point","coordinates":[-90.262138,38.598415]},"properties":{"store_name":"Midwest Petroleum/Phillips 66 83","longitude":"-90.262138","latitude":"38.598415","address":"3311 Morganford Rd","city":"Saint Louis","state":"MO","zip5":"63116","county":"ST LOUIS CITY","created_at":"2014-01-22T19:27:46Z","updated_at":"2014-02-05T17:45:57Z","category":"Gas Station Food Mart","cartodb_id":201,"description":null,"website":null}},{"type":"Feature","geometry":{"type":"Point","coordinates":[-90.246124,38.572872]},"properties":{"store_name":"D&F Grocery LLC 1","longitude":"-90.246124","latitude":"38.572872","address":"3430 Itaska St","city":"Saint Louis","state":"MO","zip5":"63111","county":"ST LOUIS CITY","created_at":"2014-01-22T19:27:46Z","updated_at":"2014-02-05T16:01:30Z","category":"Convenience/Corner/Liquor Store","cartodb_id":292,"description":null,"website":null}},{"type":"Feature","geometry":{"type":"Point","coordinates":[-90.246468,38.564323]},"properties":{"store_name":"Bates BP 2","longitude":"-90.246468","latitude":"38.564323","address":"504 Bates St","city":"Saint Louis","state":"MO","zip5":"63111","county":"ST LOUIS CITY","created_at":"2014-01-22T19:27:46Z","updated_at":"2014-02-05T15:56:41Z","category":"Gas Station Food Mart","cartodb_id":229,"description":null,"website":null}},{"type":"Feature","geometry":{"type":"Point","coordinates":[-90.309242,38.612694]},"properties":{"store_name":"Circle K 1655","longitude":"-90.309242","latitude":"38.612694","address":"2707 McCausland Ave","city":"Saint Louis","state":"MO","zip5":"63143","county":"ST LOUIS","created_at":"2014-01-22T19:27:46Z","updated_at":"2014-02-05T17:54:22Z","category":"Gas Station Food Mart","cartodb_id":246,"description":null,"website":null}},{"type":"Feature","geometry":{"type":"Point","coordinates":[-90.240799,38.587814]},"properties":{"store_name":"Discount Grocery","longitude":"-90.240799","latitude":"38.587814","address":"3404 Chippewa St","city":"Saint Louis","state":"MO","zip5":"63118","county":"ST LOUIS CITY","created_at":"2014-01-22T19:27:46Z","updated_at":"2014-02-05T17:34:47Z","category":"Convenience/Corner/Liquor Store","cartodb_id":250,"description":null,"website":null}},{"type":"Feature","geometry":{"type":"Point","coordinates":[-90.209175,38.613354]},"properties":{"store_name":"Walgreens 11711","longitude":"-90.209175","latitude":"38.613354","address":"1530 Lafayette Ave","city":"Saint Louis","state":"MO","zip5":"63104","county":"ST LOUIS CITY","created_at":"2014-01-22T19:27:46Z","updated_at":"2014-02-05T17:47:13Z","category":"Drugstore","cartodb_id":227,"description":null,"website":null}},{"type":"Feature","geometry":{"type":"Point","coordinates":[-90.272217,38.544304]},"properties":{"store_name":"Family Dollar Store 2830","longitude":"-90.272217","latitude":"38.544304","address":"125 Lemay Ferry Rd","city":"Saint Louis","state":"MO","zip5":"63125","county":"ST LOUIS","created_at":"2014-01-22T19:27:46Z","updated_at":"2014-02-05T17:47:43Z","category":"Discount Store","cartodb_id":219,"description":null,"website":null}},{"type":"Feature","geometry":{"type":"Point","coordinates":[-90.249718,38.602028]},"properties":{"store_name":"Gustine Market","longitude":"-90.249718","latitude":"38.602028","address":"3150 Gustine Ave","city":"Saint Louis","state":"MO","zip5":"63116","county":"ST LOUIS CITY","created_at":"2014-01-22T19:27:46Z","updated_at":"2014-02-05T17:52:54Z","category":"Convenience/Corner/Liquor Store","cartodb_id":233,"description":"(314) 932-5141, high-end corner store","website":null}},{"type":"Feature","geometry":{"type":"Point","coordinates":[-90.187096,38.629223]},"properties":{"store_name":"James Henry Provisions","longitude":"-90.187096","latitude":"38.629223","address":"434 N 4th St","city":"Saint Louis","state":"MO","zip5":"63102","county":"ST LOUIS CITY","created_at":"2014-01-22T19:27:46Z","updated_at":"2014-02-05T17:54:11Z","category":"Convenience/Corner/Liquor Store","cartodb_id":240,"description":"(314) 421-1177","website":null}},{"type":"Feature","geometry":{"type":"Point","coordinates":[-90.209427,38.670055]},"properties":{"store_name":"Obama Meat Market","longitude":"-90.209427","latitude":"38.670055","address":"2025 E Grand Blvd","city":"Saint Louis","state":"MO","zip5":"63107","county":"ST LOUIS CITY","created_at":"2014-01-22T19:27:46Z","updated_at":"2014-02-05T18:13:45Z","category":"Convenience/Corner/Liquor Store","cartodb_id":266,"description":"(314) 533-7261","website":null}},{"type":"Feature","geometry":{"type":"Point","coordinates":[-90.281624,38.673244]},"properties":{"store_name":"Ali Market Inc","longitude":"-90.281624","latitude":"38.673244","address":"5870 Dr Martin Luther King Dr","city":"Saint Louis","state":"MO","zip5":"63112","county":"ST LOUIS CITY","created_at":"2014-01-22T19:27:46Z","updated_at":"2014-02-05T18:15:13Z","category":"Convenience/Corner/Liquor Store","cartodb_id":270,"description":null,"website":null}},{"type":"Feature","geometry":{"type":"Point","coordinates":[-90.268112,38.580635]},"properties":{"store_name":"Hamorabi Food Market","longitude":"-90.268112","latitude":"38.580635","address":"5031 Gravois Ave","city":"Saint Louis","state":"MO","zip5":"63116","county":"ST LOUIS CITY","created_at":"2014-01-22T19:27:46Z","updated_at":"2014-02-05T18:16:50Z","category":"Convenience/Corner/Liquor Store","cartodb_id":277,"description":" (314) 457-1764 â€Ž ","website":null}},{"type":"Feature","geometry":{"type":"Point","coordinates":[-90.196373,38.651497]},"properties":{"store_name":"Old North Grocery Coop","longitude":"-90.196373","latitude":"38.651497","address":"2718 N 13th St","city":"Saint Louis","state":"MO","zip5":"63106","county":"ST LOUIS CITY","created_at":"2014-01-22T19:27:46Z","updated_at":"2014-02-05T18:17:26Z","category":"Specialty Store","cartodb_id":278,"description":"Grocery Co-op. Currently closed. May re-open.","website":null}},{"type":"Feature","geometry":{"type":"Point","coordinates":[-90.190941,38.628193]},"properties":{"store_name":"Olive Express Mart","longitude":"-90.190941","latitude":"38.628193","address":"614 Olive St","city":"Saint Louis","state":"MO","zip5":"63101","county":"ST LOUIS CITY","created_at":"2014-01-22T19:27:46Z","updated_at":"2014-02-05T18:18:15Z","category":"Convenience/Corner/Liquor Store","cartodb_id":280,"description":null,"website":null}},{"type":"Feature","geometry":{"type":"Point","coordinates":[-90.239014,38.670925]},"properties":{"store_name":"Quick Stop Mini Market 1","longitude":"-90.239014","latitude":"38.670925","address":"4487 Natural Bridge Ave","city":"Saint Louis","state":"MO","zip5":"63115","county":"ST LOUIS CITY","created_at":"2014-01-22T19:27:46Z","updated_at":"2014-02-05T18:20:12Z","category":"Convenience/Corner/Liquor Store","cartodb_id":286,"description":"(314) 931-7440","website":null}},{"type":"Feature","geometry":{"type":"Point","coordinates":[-90.283737,38.558899]},"properties":{"store_name":"Dollar Tree 3972","longitude":"-90.283737","latitude":"38.558899","address":"7800 Morganford Rd","city":"Saint Louis","state":"MO","zip5":"63123","county":"ST LOUIS","created_at":"2014-01-22T19:27:46Z","updated_at":"2014-02-05T23:08:19Z","category":"Discount Store","cartodb_id":269,"description":null,"website":null}},{"type":"Feature","geometry":{"type":"Point","coordinates":[-90.228882,38.65139]},"properties":{"store_name":"Star Packing Company","longitude":"-90.228882","latitude":"38.65139","address":"3813 Cote Brilliante Ave","city":"Saint Louis","state":"MO","zip5":"63113","county":"ST LOUIS CITY","created_at":"2014-01-22T19:27:46Z","updated_at":"2014-06-04T16:07:47Z","category":"Specialty Store","cartodb_id":311,"description":"Meat packer that produces quality beef, veal, lamb and goat. Halal meat. Kosher Meat.\nPhone: 314-652-0262 â€¢\nE-mail: sales@starpackingco.com","website":"http://starpackingco.com/"}},{"type":"Feature","geometry":{"type":"Point","coordinates":[-90.24437,38.580399]},"properties":{"store_name":"Speedy Gas Mart","longitude":"-90.24437","latitude":"38.580399","address":"4206 S Grand Blvd","city":"Saint Louis","state":"MO","zip5":"63111","county":"ST LOUIS CITY","created_at":"2014-01-22T19:27:46Z","updated_at":"2014-02-05T16:11:46Z","category":"Gas Station Food Mart","cartodb_id":303,"description":null,"website":null}},{"type":"Feature","geometry":{"type":"Point","coordinates":[-90.2677,38.612701]},"properties":{"store_name":"Reem Gas Mart BP 1","longitude":"-90.2677","latitude":"38.612701","address":"4901 Southwest Ave","city":"Saint Louis","state":"MO","zip5":"63110","county":"ST LOUIS CITY","created_at":"2014-01-22T19:27:46Z","updated_at":"2014-02-05T15:49:17Z","category":"Gas Station Food Mart","cartodb_id":253,"description":null,"website":null}},{"type":"Feature","geometry":{"type":"Point","coordinates":[-90.244576,38.569679]},"properties":{"store_name":"Discount Grocery Store","longitude":"-90.244576","latitude":"38.569679","address":"5009 Virginia Ave","city":"Saint Louis","state":"MO","zip5":"63111","county":"ST LOUIS CITY","created_at":"2014-01-22T19:27:46Z","updated_at":"2014-02-05T15:59:06Z","category":"Convenience/Corner/Liquor Store","cartodb_id":295,"description":null,"website":null}},{"type":"Feature","geometry":{"type":"Point","coordinates":[-90.277229,38.675137]},"properties":{"store_name":"Goodfellow Convenience Store","longitude":"-90.277229","latitude":"38.675137","address":"1968 Goodfellow Blvd","city":"Saint Louis","state":"MO","zip5":"63112","county":"ST LOUIS CITY","created_at":"2014-01-22T19:27:46Z","updated_at":"2014-02-05T18:23:13Z","category":"Convenience/Corner/Liquor Store","cartodb_id":289,"description":"(314) 383-5156","website":null}},{"type":"Feature","geometry":{"type":"Point","coordinates":[-90.255783,38.589474]},"properties":{"store_name":"CVS Pharmacy 4191","longitude":"-90.255783","latitude":"38.589474","address":"4100 Gravois Ave","city":"Saint Louis","state":"MO","zip5":"63116","county":"ST LOUIS CITY","created_at":"2014-01-22T19:27:46Z","updated_at":"2014-02-04T19:06:00Z","category":"Drugstore","cartodb_id":306,"description":null,"website":null}},{"type":"Feature","geometry":{"type":"Point","coordinates":[-90.248726,38.591747]},"properties":{"store_name":"7-Eleven Store 22460","longitude":"-90.248726","latitude":"38.591747","address":"3765 Gravois Ave","city":"Saint Louis","state":"MO","zip5":"63116","county":"ST LOUIS CITY","created_at":"2014-01-22T19:27:46Z","updated_at":"2014-02-05T17:04:49Z","category":"Convenience/Corner/Liquor Store","cartodb_id":349,"description":"7-Eleven","website":null}},{"type":"Feature","geometry":{"type":"Point","coordinates":[-90.2304,38.709217]},"properties":{"store_name":"Yours Market 1","longitude":"-90.2304","latitude":"38.709217","address":"8005 N Broadway","city":"Saint Louis","state":"MO","zip5":"63147","county":"ST LOUIS CITY","created_at":"2014-01-22T19:27:46Z","updated_at":"2014-02-05T18:18:28Z","category":"Superette/Small Grocery","cartodb_id":285,"description":null,"website":null}},{"type":"Feature","geometry":{"type":"Point","coordinates":[-90.230171,38.673283]},"properties":{"store_name":"Yeatman Market 2","longitude":"-90.230171","latitude":"38.673283","address":"4300 Lee Ave","city":"Saint Louis","state":"MO","zip5":"63115","county":"ST LOUIS CITY","created_at":"2014-01-22T19:27:46Z","updated_at":"2014-02-05T18:25:29Z","category":"Convenience/Corner/Liquor Store","cartodb_id":293,"description":null,"website":null}},{"type":"Feature","geometry":{"type":"Point","coordinates":[-90.244553,38.588104]},"properties":{"store_name":"Gurung Bazaar","longitude":"-90.244553","latitude":"38.588104","address":"3801 S Grand Blvd","city":"Saint Louis","state":"MO","zip5":"63118","county":"ST LOUIS CITY","created_at":"2014-01-22T19:27:46Z","updated_at":"2014-06-10T19:41:32Z","category":"Superette/Small Grocery","cartodb_id":318,"description":"(314) 664-2884","website":null}},{"type":"Feature","geometry":{"type":"Point","coordinates":[-90.202415,38.671772]},"properties":{"store_name":"Energy Marketing 710 Llc","longitude":"-90.202415","latitude":"38.671772","address":"4500 N Broadway St","city":"Saint Louis","state":"MO","zip5":"63147","county":"ST LOUIS CITY","created_at":"2014-01-22T19:27:46Z","updated_at":"2014-06-11T22:27:12Z","category":"Gas Station Food Mart","cartodb_id":356,"description":null,"website":null}},{"type":"Feature","geometry":{"type":"Point","coordinates":[-90.244293,38.589207]},"properties":{"store_name":"Mr International Market","longitude":"-90.244293","latitude":"38.589207","address":"3730 S Grand Blvd","city":"Saint Louis","state":"MO","zip5":"63118","county":"ST LOUIS CITY","created_at":"2014-01-22T19:27:46Z","updated_at":"2014-06-26T19:26:07Z","category":"Convenience/Corner/Liquor Store","cartodb_id":365,"description":"(314) 762-9933","website":null}},{"type":"Feature","geometry":{"type":"Point","coordinates":[-90.198914,38.632248]},"properties":{"store_name":"Washington Ave Post","longitude":"-90.198914","latitude":"38.632248","address":"1315 Washington Ave","city":"Saint Louis","state":"MO","zip5":"63103","county":"ST LOUIS CITY","created_at":"2014-01-22T19:27:46Z","updated_at":"2014-02-05T18:30:09Z","category":"Convenience/Corner/Liquor Store","cartodb_id":296,"description":"(314) 588-0545, washingtonavepost.com, Coffee Shop and General Store.","website":null}},{"type":"Feature","geometry":{"type":"Point","coordinates":[-90.214668,38.638309]},"properties":{"store_name":"RC Market 1","longitude":"-90.214668","latitude":"38.638309","address":"2709 Dr Martin Luther King Dr","city":"Saint Louis","state":"MO","zip5":"63106","county":"ST LOUIS CITY","created_at":"2014-01-22T19:27:46Z","updated_at":"2014-02-05T18:35:22Z","category":"Convenience/Corner/Liquor Store","cartodb_id":300,"description":"(314) 535-5225","website":null}},{"type":"Feature","geometry":{"type":"Point","coordinates":[-90.208755,38.631966]},"properties":{"store_name":"J R Market International Llc","longitude":"-90.208755","latitude":"38.631966","address":"2020 Olive St","city":"Saint Louis","state":"MO","zip5":"63103","county":"ST LOUIS CITY","created_at":"2014-01-22T19:27:46Z","updated_at":"2014-02-05T18:41:39Z","category":"Convenience/Corner/Liquor Store","cartodb_id":304,"description":null,"website":null}},{"type":"Feature","geometry":{"type":"Point","coordinates":[-90.194786,38.754253]},"properties":{"store_name":"Uptown Market","longitude":"-90.194786","latitude":"38.754253","address":"100 Shepley Dr","city":"Saint Louis","state":"MO","zip5":"63137","county":"ST LOUIS","created_at":"2014-01-22T19:27:46Z","updated_at":"2014-02-05T18:44:38Z","category":"Convenience/Corner/Liquor Store","cartodb_id":314,"description":" (314) 869-8614 â€Ž ","website":null}},{"type":"Feature","geometry":{"type":"Point","coordinates":[-90.234283,38.596096]},"properties":{"store_name":"3 Eleven Market LLC","longitude":"-90.234283","latitude":"38.596096","address":"3301 Minnesota Ave","city":"Saint Louis","state":"MO","zip5":"63118","county":"ST LOUIS CITY","created_at":"2014-01-22T19:27:46Z","updated_at":"2014-02-05T18:45:48Z","category":"Convenience/Corner/Liquor Store","cartodb_id":317,"description":"Penny Saver Grocery, Meats, and Deli","website":null}},{"type":"Feature","geometry":{"type":"Point","coordinates":[-90.250488,38.692017]},"properties":{"store_name":"A&Z Market","longitude":"-90.250488","latitude":"38.692017","address":"4973 Emerson Ave","city":"Saint Louis","state":"MO","zip5":"63120","county":"ST LOUIS CITY","created_at":"2014-01-22T19:27:46Z","updated_at":"2014-02-05T18:52:49Z","category":"Convenience/Corner/Liquor Store","cartodb_id":339,"description":" (314) 381-2402, E & L Market","website":null}},{"type":"Feature","geometry":{"type":"Point","coordinates":[-90.260544,38.659828]},"properties":{"store_name":"Deals 4852","longitude":"-90.260544","latitude":"38.659828","address":"1300 Aubert Ave","city":"Saint Louis","state":"MO","zip5":"63113","county":"ST LOUIS CITY","created_at":"2014-01-22T19:27:46Z","updated_at":"2014-02-05T18:57:20Z","category":"Discount Store","cartodb_id":348,"description":null,"website":null}},{"type":"Feature","geometry":{"type":"Point","coordinates":[-90.27282,38.582874]},"properties":{"store_name":"Crown Mini Market LLC","longitude":"-90.27282","latitude":"38.582874","address":"4600 Delor St","city":"Saint Louis","state":"MO","zip5":"63116","county":"ST LOUIS CITY","created_at":"2014-01-22T19:27:46Z","updated_at":"2014-02-05T19:02:40Z","category":"Convenience/Corner/Liquor Store","cartodb_id":347,"description":"Slatka-Tajna Mini Market","website":null}},{"type":"Feature","geometry":{"type":"Point","coordinates":[-90.2136,38.665474]},"properties":{"store_name":"Grand City","longitude":"-90.2136","latitude":"38.665474","address":"4122 N Grand Blvd","city":"Saint Louis","state":"MO","zip5":"63107","county":"ST LOUIS CITY","created_at":"2014-01-22T19:27:46Z","updated_at":"2014-02-05T19:03:27Z","category":"Convenience/Corner/Liquor Store","cartodb_id":351,"description":null,"website":null}},{"type":"Feature","geometry":{"type":"Point","coordinates":[-90.275955,38.587746]},"properties":{"store_name":"African Naturals","longitude":"-90.275955","latitude":"38.587746","address":"4511 S Kingshighway Blvd","city":"Saint Louis","state":"MO","zip5":"63109","county":"ST LOUIS CITY","created_at":"2014-01-22T19:27:46Z","updated_at":"2014-02-05T23:10:50Z","category":"Convenience/Corner/Liquor Store","cartodb_id":449,"description":"African International Food Store","website":null}},{"type":"Feature","geometry":{"type":"Point","coordinates":[-90.237953,38.670456]},"properties":{"store_name":"SAVE-A-LOT 422","longitude":"-90.237953","latitude":"38.670456","address":"4437 Natural Bridge Ave","city":"Saint Louis","state":"MO","zip5":"63115","county":"ST LOUIS CITY","created_at":"2014-01-22T19:27:46Z","updated_at":"2014-01-28T18:34:37Z","category":"Supermarket","cartodb_id":331,"description":null,"website":null}},{"type":"Feature","geometry":{"type":"Point","coordinates":[-90.226944,38.586479]},"properties":{"store_name":"Jefferson Motomart 3370","longitude":"-90.226944","latitude":"38.586479","address":"3751 S Jefferson Ave","city":"Saint Louis","state":"MO","zip5":"63118","county":"ST LOUIS CITY","created_at":"2014-01-22T19:27:46Z","updated_at":"2014-02-05T16:29:47Z","category":"Gas Station Food Mart","cartodb_id":326,"description":null,"website":null}},{"type":"Feature","geometry":{"type":"Point","coordinates":[-90.234413,38.572651]},"properties":{"store_name":"Phillips 66","longitude":"-90.234413","latitude":"38.572651","address":"4553 S Broadway","city":"Saint Louis","state":"MO","zip5":"63111","county":"ST LOUIS CITY","created_at":"2014-01-22T19:27:46Z","updated_at":"2014-02-05T15:20:30Z","category":"Gas Station Food Mart","cartodb_id":354,"description":null,"website":null}},{"type":"Feature","geometry":{"type":"Point","coordinates":[-90.261627,38.662807]},"properties":{"store_name":"Crown Mart Inc 8","longitude":"-90.261627","latitude":"38.662807","address":"1451 N Kingshighway Blvd","city":"Saint Louis","state":"MO","zip5":"63113","county":"ST LOUIS CITY","created_at":"2014-01-22T19:27:46Z","updated_at":"2014-02-05T18:47:03Z","category":"Gas Station Food Mart","cartodb_id":322,"description":null,"website":null}},{"type":"Feature","geometry":{"type":"Point","coordinates":[-90.235329,38.669346]},"properties":{"store_name":"City Supermarket n/a","longitude":"-90.235329","latitude":"38.669346","address":"4331 Natural Bridge Ave","city":"Saint Louis","state":"MO","zip5":"63115","county":"ST LOUIS CITY","created_at":"2014-01-22T19:27:46Z","updated_at":"2014-02-05T22:55:03Z","category":"Convenience/Corner/Liquor Store","cartodb_id":459,"description":"(314) 381-2246","website":null}},{"type":"Feature","geometry":{"type":"Point","coordinates":[-90.291473,38.603783]},"properties":{"store_name":"U - Gas Hampton Ave 231","longitude":"-90.291473","latitude":"38.603783","address":"3225 Hampton Ave","city":"Saint Louis","state":"MO","zip5":"63139","county":"ST LOUIS CITY","created_at":"2014-01-22T19:27:46Z","updated_at":"2014-02-05T19:04:26Z","category":"Gas Station Food Mart","cartodb_id":362,"description":null,"website":null}},{"type":"Feature","geometry":{"type":"Point","coordinates":[-90.286613,38.654617]},"properties":{"store_name":"Crown Mart","longitude":"-90.286613","latitude":"38.654617","address":"710 Goodfellow Blvd","city":"Saint Louis","state":"MO","zip5":"63112","county":"ST LOUIS CITY","created_at":"2014-01-22T19:27:46Z","updated_at":"2014-02-05T15:32:11Z","category":"Gas Station Food Mart","cartodb_id":344,"description":null,"website":null}},{"type":"Feature","geometry":{"type":"Point","coordinates":[-90.256157,38.713997]},"properties":{"store_name":"Dollar General Store 13355","longitude":"-90.256157","latitude":"38.713997","address":"6400 W Florissant Ave","city":"Saint Louis","state":"MO","zip5":"63136","county":"ST LOUIS","created_at":"2014-01-22T19:27:46Z","updated_at":"2014-02-05T15:45:28Z","category":"Discount Store","cartodb_id":371,"description":null,"website":null}},{"type":"Feature","geometry":{"type":"Point","coordinates":[-90.254494,38.627346]},"properties":{"store_name":"N & M Food Market","longitude":"-90.254494","latitude":"38.627346","address":"4201 Manchester Ave","city":"Saint Louis","state":"MO","zip5":"63110","county":"ST LOUIS CITY","created_at":"2014-01-22T19:27:46Z","updated_at":"2014-02-05T15:47:58Z","category":"Convenience/Corner/Liquor Store","cartodb_id":429,"description":"(314) 652-1208","website":null}},{"type":"Feature","geometry":{"type":"Point","coordinates":[-90.23587,38.587276]},"properties":{"store_name":"Chippewa Market","longitude":"-90.23587","latitude":"38.587276","address":"3025 Chippewa St","city":"Saint Louis","state":"MO","zip5":"63118","county":"ST LOUIS CITY","created_at":"2014-01-22T19:27:46Z","updated_at":"2014-06-10T19:42:08Z","category":"Convenience/Corner/Liquor Store","cartodb_id":375,"description":" (314) 577-0043","website":null}},{"type":"Feature","geometry":{"type":"Point","coordinates":[-90.204201,38.662224]},"properties":{"store_name":"BLE Confectionary & Restaurant","longitude":"-90.204201","latitude":"38.662224","address":"2031 Bremen Ave","city":"Saint Louis","state":"MO","zip5":"63107","county":"ST LOUIS CITY","created_at":"2014-01-22T19:27:46Z","updated_at":"2014-06-11T22:27:33Z","category":"Convenience/Corner/Liquor Store","cartodb_id":395,"description":null,"website":null}},{"type":"Feature","geometry":{"type":"Point","coordinates":[-90.197769,38.631943]},"properties":{"store_name":"Stl Mart 1","longitude":"-90.197769","latitude":"38.631943","address":"1224 Washington Ave","city":"Saint Louis","state":"MO","zip5":"63103","county":"ST LOUIS CITY","created_at":"2014-01-22T19:27:46Z","updated_at":"2014-06-11T22:28:02Z","category":"Convenience/Corner/Liquor Store","cartodb_id":466,"description":null,"website":null}},{"type":"Feature","geometry":{"type":"Point","coordinates":[-90.200096,38.610481]},"properties":{"store_name":"Johnny's Market","longitude":"-90.20015","latitude":"38.610516","address":"730 Carroll St","city":"Saint Louis","state":"MO","zip5":"63104","county":"ST LOUIS CITY","created_at":"2014-01-22T19:27:46Z","updated_at":"2014-07-29T16:40:40Z","category":"Farmers Market/Farm","cartodb_id":471,"description":"314-622-4180, SoulardMarket@aol.com, http://www.soulardmarket.com/","website":null}},{"type":"Feature","geometry":{"type":"Point","coordinates":[-90.200078,38.610498]},"properties":{"store_name":"S & M Schweiger Produce","longitude":"-90.20015","latitude":"38.610516","address":"730 Carroll St","city":"Saint Louis","state":"MO","zip5":"63104","county":"ST LOUIS CITY","created_at":"2014-01-22T19:27:46Z","updated_at":"2014-07-29T16:40:45Z","category":"Farmers Market/Farm","cartodb_id":346,"description":"314-622-4180, SoulardMarket@aol.com, http://www.soulardmarket.com/","website":null}},{"type":"Feature","geometry":{"type":"Point","coordinates":[-90.200156,38.610541]},"properties":{"store_name":"Kb Produce","longitude":"-90.20015","latitude":"38.610516","address":"730 Carroll St","city":"Saint Louis","state":"MO","zip5":"63104","county":"ST LOUIS CITY","created_at":"2014-01-22T19:27:46Z","updated_at":"2014-07-29T16:40:51Z","category":"Farmers Market/Farm","cartodb_id":353,"description":"314-622-4180, SoulardMarket@aol.com, http://www.soulardmarket.com/","website":null}},{"type":"Feature","geometry":{"type":"Point","coordinates":[-90.20021,38.610549]},"properties":{"store_name":"Gerrein Brothers Produce","longitude":"-90.20015","latitude":"38.610516","address":"730 Carroll St","city":"Saint Louis","state":"MO","zip5":"63104","county":"ST LOUIS CITY","created_at":"2014-01-22T19:27:46Z","updated_at":"2014-07-29T16:40:59Z","category":"Farmers Market/Farm","cartodb_id":329,"description":null,"website":null}},{"type":"Feature","geometry":{"type":"Point","coordinates":[-90.200088,38.610477]},"properties":{"store_name":"Its Your Health","longitude":"-90.20015","latitude":"38.610516","address":"730 Carroll St","city":"Saint Louis","state":"MO","zip5":"63104","county":"ST LOUIS CITY","created_at":"2014-01-22T19:27:46Z","updated_at":"2014-07-29T16:41:06Z","category":"Farmers Market/Farm","cartodb_id":299,"description":"314-622-4180, SoulardMarket@aol.com, http://www.soulardmarket.com/","website":null}},{"type":"Feature","geometry":{"type":"Point","coordinates":[-90.2002,38.610565]},"properties":{"store_name":"Kruse Gardens","longitude":"-90.195366","latitude":"38.607872","address":"730 Carroll St","city":"St louis","state":"MO","zip5":"63110","county":"ST LOUIS CITY","created_at":"2014-01-22T19:27:46Z","updated_at":"2014-07-29T16:42:23Z","category":"Farmers Market/Farm","cartodb_id":427,"description":"314-622-4180, SoulardMarket@aol.com, http://www.soulardmarket.com/","website":null}},{"type":"Feature","geometry":{"type":"Point","coordinates":[-90.261551,38.549198]},"properties":{"store_name":"Family Market","longitude":"-90.261551","latitude":"38.549198","address":"7619 Ivory Ave","city":"Saint Louis","state":"MO","zip5":"63111","county":"ST LOUIS CITY","created_at":"2014-01-22T19:27:46Z","updated_at":"2014-02-05T15:54:34Z","category":"Convenience/Corner/Liquor Store","cartodb_id":376,"description":"Suzy's Market and Deli, (314) 256-0275","website":null}},{"type":"Feature","geometry":{"type":"Point","coordinates":[-90.244995,38.585129]},"properties":{"store_name":"Mos Corner Store","longitude":"-90.244995","latitude":"38.585129","address":"3935 S Grand Blvd","city":"Saint Louis","state":"MO","zip5":"63118","county":"ST LOUIS CITY","created_at":"2014-01-22T19:27:46Z","updated_at":"2014-02-05T16:55:00Z","category":"Convenience/Corner/Liquor Store","cartodb_id":420,"description":null,"website":null}},{"type":"Feature","geometry":{"type":"Point","coordinates":[-90.289879,38.609272]},"properties":{"store_name":"7-Eleven Store 19279","longitude":"-90.289879","latitude":"38.609272","address":"2807 Sulphur Ave","city":"Saint Louis","state":"MO","zip5":"63139","county":"ST LOUIS CITY","created_at":"2014-01-22T19:27:46Z","updated_at":"2014-02-05T18:55:49Z","category":"Convenience/Corner/Liquor Store","cartodb_id":405,"description":null,"website":null}},{"type":"Feature","geometry":{"type":"Point","coordinates":[-90.233711,38.648666]},"properties":{"store_name":"Page Discount Market","longitude":"-90.233711","latitude":"38.648666","address":"3878 Page Blvd","city":"Saint Louis","state":"MO","zip5":"63113","county":"ST LOUIS CITY","created_at":"2014-01-22T19:27:46Z","updated_at":"2014-05-29T18:08:00Z","category":"Convenience/Corner/Liquor Store","cartodb_id":444,"description":null,"website":null}},{"type":"Feature","geometry":{"type":"Point","coordinates":[-90.234634,38.649063]},"properties":{"store_name":"Dr. J's Market, Inc","longitude":"-90.234634","latitude":"38.649063","address":"3918 Page Blvd","city":"Saint Louis","state":"MO","zip5":"63113","county":"ST LOUIS CITY","created_at":"2014-01-22T19:27:46Z","updated_at":"2014-02-05T22:17:53Z","category":"Convenience/Corner/Liquor Store","cartodb_id":456,"description":null,"website":null}},{"type":"Feature","geometry":{"type":"Point","coordinates":[-90.20314,38.606102]},"properties":{"store_name":"Dollar Tree 5123","longitude":"-90.20314","latitude":"38.606102","address":"2014 S 7th St","city":"Saint Louis","state":"MO","zip5":"63104","county":"ST LOUIS CITY","created_at":"2014-01-22T19:27:46Z","updated_at":"2014-02-05T20:40:29Z","category":"Discount Store","cartodb_id":442,"description":null,"website":null}},{"type":"Feature","geometry":{"type":"Point","coordinates":[-90.287292,38.672466]},"properties":{"store_name":"Umiya LLC","longitude":"-90.287292","latitude":"38.672466","address":"1391 Hodiamont Ave","city":"Saint Louis","state":"MO","zip5":"63112","county":"ST LOUIS CITY","created_at":"2014-01-22T19:27:46Z","updated_at":"2014-02-05T22:45:52Z","category":"Convenience/Corner/Liquor Store","cartodb_id":445,"description":null,"website":null}},{"type":"Feature","geometry":{"type":"Point","coordinates":[-90.223923,38.662415]},"properties":{"store_name":"TNT Groceries","longitude":"-90.223923","latitude":"38.662415","address":"3900 Lexington Ave","city":"Saint Louis","state":"MO","zip5":"63107","county":"ST LOUIS CITY","created_at":"2014-01-22T19:27:46Z","updated_at":"2014-02-05T22:55:54Z","category":"Convenience/Corner/Liquor Store","cartodb_id":434,"description":null,"website":null}},{"type":"Feature","geometry":{"type":"Point","coordinates":[-90.201469,38.653233]},"properties":{"store_name":"J W Package Liquor","longitude":"-90.201469","latitude":"38.653233","address":"3001 N Florissant Ave","city":"Saint Louis","state":"MO","zip5":"63107","county":"ST LOUIS CITY","created_at":"2014-01-22T19:27:46Z","updated_at":"2014-02-05T22:58:33Z","category":"Convenience/Corner/Liquor Store","cartodb_id":451,"description":null,"website":null}},{"type":"Feature","geometry":{"type":"Point","coordinates":[-90.250183,38.640888]},"properties":{"store_name":"Lindell Phillips 66","longitude":"-90.250183","latitude":"38.640888","address":"4251 Lindell Blvd","city":"Saint Louis","state":"MO","zip5":"63108","county":"ST LOUIS CITY","created_at":"2014-01-22T19:27:46Z","updated_at":"2014-02-05T23:11:57Z","category":"Gas Station Food Mart","cartodb_id":505,"description":null,"website":null}},{"type":"Feature","geometry":{"type":"Point","coordinates":[-90.242935,38.598019]},"properties":{"store_name":"Nawroz Market","longitude":"-90.242935","latitude":"38.598019","address":"3244 S Grand Blvd","city":"Saint Louis","state":"MO","zip5":"63118","county":"ST LOUIS CITY","created_at":"2014-01-22T19:27:46Z","updated_at":"2014-02-05T23:13:59Z","category":"Gas Station Food Mart","cartodb_id":478,"description":null,"website":null}},{"type":"Feature","geometry":{"type":"Point","coordinates":[-90.231865,38.650703]},"properties":{"store_name":"Crown Mart","longitude":"-90.231865","latitude":"38.650703","address":"3868 Martin Luther King Dr","city":"St Louis","state":"MO","zip5":"63113","county":"ST LOUIS CITY","created_at":"2014-01-22T19:27:46Z","updated_at":"2014-05-29T18:07:06Z","category":"Gas Station Food Mart","cartodb_id":510,"description":null,"website":null}},{"type":"Feature","geometry":{"type":"Point","coordinates":[-90.272804,38.592281]},"properties":{"store_name":"M & R International Market 0","longitude":"-90.272804","latitude":"38.592281","address":"3805 S Kingshighway Blvd","city":"Saint Louis","state":"MO","zip5":"63109","county":"ST LOUIS CITY","created_at":"2014-01-22T19:27:46Z","updated_at":"2014-02-05T23:14:56Z","category":"Convenience/Corner/Liquor Store","cartodb_id":480,"description":null,"website":null}},{"type":"Feature","geometry":{"type":"Point","coordinates":[-90.230377,38.711014]},"properties":{"store_name":"M & S Grand Shop","longitude":"-90.230377","latitude":"38.711014","address":"8118 N Broadway","city":"Saint Louis","state":"MO","zip5":"63147","county":"ST LOUIS CITY","created_at":"2014-01-22T19:27:46Z","updated_at":"2014-02-05T15:44:50Z","category":"Convenience/Corner/Liquor Store","cartodb_id":489,"description":"(314) 381-7599","website":null}},{"type":"Feature","geometry":{"type":"Point","coordinates":[-90.241638,38.639141]},"properties":{"store_name":"CVS Pharmacy 2376","longitude":"-90.241638","latitude":"38.639141","address":"3925 Lindell Blvd","city":"Saint Louis","state":"MO","zip5":"63108","county":"ST LOUIS CITY","created_at":"2014-01-22T19:27:46Z","updated_at":"2014-02-05T22:08:48Z","category":"Drugstore","cartodb_id":511,"description":null,"website":null}},{"type":"Feature","geometry":{"type":"Point","coordinates":[-90.250641,38.553963]},"properties":{"store_name":"Katara","longitude":"-90.250641","latitude":"38.553963","address":"6703 S Broadway","city":"Saint Louis","state":"MO","zip5":"63111","county":"ST LOUIS CITY","created_at":"2014-01-22T19:27:46Z","updated_at":"2014-02-05T15:55:33Z","category":"Gas Station Food Mart","cartodb_id":475,"description":"7-Eleven","website":null}},{"type":"Feature","geometry":{"type":"Point","coordinates":[-90.224976,38.595375]},"properties":{"store_name":"Bp Gas Station","longitude":"-90.224976","latitude":"38.595375","address":"3258 S Jefferson Ave","city":"Saint Louis","state":"MO","zip5":"63118","county":"ST LOUIS CITY","created_at":"2014-01-22T19:27:46Z","updated_at":"2014-02-05T18:55:09Z","category":"Gas Station Food Mart","cartodb_id":418,"description":null,"website":null}},{"type":"Feature","geometry":{"type":"Point","coordinates":[-90.245644,38.62989]},"properties":{"store_name":"Vandeventer Phillips 66","longitude":"-90.245644","latitude":"38.62989","address":"733 S Vandeventer Ave","city":"Saint Louis","state":"MO","zip5":"63110","county":"ST LOUIS CITY","created_at":"2014-01-22T19:27:46Z","updated_at":"2014-02-05T15:29:58Z","category":"Gas Station Food Mart","cartodb_id":504,"description":null,"website":null}},{"type":"Feature","geometry":{"type":"Point","coordinates":[-90.197144,38.644543]},"properties":{"store_name":"Radigans Amoco","longitude":"-90.197144","latitude":"38.644543","address":"2005 N Florissant Ave","city":"Saint Louis","state":"MO","zip5":"63106","county":"ST LOUIS CITY","created_at":"2014-01-22T19:27:46Z","updated_at":"2014-02-05T18:56:00Z","category":"Gas Station Food Mart","cartodb_id":398,"description":null,"website":null}},{"type":"Feature","geometry":{"type":"Point","coordinates":[-90.193039,38.617836]},"properties":{"store_name":"Gas Mart 11","longitude":"-90.193039","latitude":"38.617836","address":"902 S Broadway","city":"Saint Louis","state":"MO","zip5":"63102","county":"ST LOUIS CITY","created_at":"2014-01-22T19:27:46Z","updated_at":"2014-02-05T15:27:05Z","category":"Gas Station Food Mart","cartodb_id":407,"description":null,"website":null}},{"type":"Feature","geometry":{"type":"Point","coordinates":[-90.265007,38.626091]},"properties":{"store_name":"Gas Mart 9","longitude":"-90.265007","latitude":"38.626091","address":"1187 S Kingshighway Blvd","city":"Saint Louis","state":"MO","zip5":"63110","county":"ST LOUIS CITY","created_at":"2014-01-22T19:27:46Z","updated_at":"2014-02-05T15:48:12Z","category":"Gas Station Food Mart","cartodb_id":446,"description":null,"website":null}},{"type":"Feature","geometry":{"type":"Point","coordinates":[-90.251587,38.591408]},"properties":{"store_name":"Papa Murphy's MO064","longitude":"-90.251587","latitude":"38.591408","address":"3909 Gravois Ave","city":"Saint Louis","state":"MO","zip5":"63116","county":"ST LOUIS CITY","created_at":"2014-01-22T19:27:46Z","updated_at":"2014-02-05T17:02:00Z","category":"Specialty Store","cartodb_id":465,"description":"(314) 875-9199, Take and bake pizza. http://www.papamurphys.com/","website":null}},{"type":"Feature","geometry":{"type":"Point","coordinates":[-90.252136,38.591164]},"properties":{"store_name":"African Grocery Store 1","longitude":"-90.252136","latitude":"38.591164","address":"3945 Gravois Ave","city":"Saint Louis","state":"MO","zip5":"63116","county":"ST LOUIS CITY","created_at":"2014-01-22T19:27:46Z","updated_at":"2014-02-05T17:03:56Z","category":"Specialty Store","cartodb_id":495,"description":"Sierra Leone store, (314) 772-8406","website":null}},{"type":"Feature","geometry":{"type":"Point","coordinates":[-90.227188,38.645943]},"properties":{"store_name":"Quick Mart","longitude":"-90.227188","latitude":"38.645943","address":"1310 N Grand Blvd","city":"Saint Louis","state":"MO","zip5":"63106","county":"ST LOUIS CITY","created_at":"2014-01-22T19:27:46Z","updated_at":"2014-02-05T22:09:28Z","category":"Gas Station Food Mart","cartodb_id":497,"description":null,"website":null}},{"type":"Feature","geometry":{"type":"Point","coordinates":[-90.275528,38.662823]},"properties":{"store_name":"New Way Market","longitude":"-90.275528","latitude":"38.662823","address":"5457 Page Blvd","city":"Saint Louis","state":"MO","zip5":"63112","county":"ST LOUIS CITY","created_at":"2014-01-22T19:27:46Z","updated_at":"2014-02-05T22:31:39Z","category":"Convenience/Corner/Liquor Store","cartodb_id":476,"description":"Mama Market? ","website":null}},{"type":"Feature","geometry":{"type":"Point","coordinates":[-90.269768,38.663532]},"properties":{"store_name":"DJ 'S Mini Mart","longitude":"-90.269768","latitude":"38.663532","address":"1403 Union Blvd","city":"Saint Louis","state":"MO","zip5":"63113","county":"ST LOUIS CITY","created_at":"2014-01-22T19:27:46Z","updated_at":"2014-02-05T22:34:19Z","category":"Convenience/Corner/Liquor Store","cartodb_id":498,"description":"(314) 932-1046. Permanently Closed.","website":null}},{"type":"Feature","geometry":{"type":"Point","coordinates":[-90.272179,38.659401]},"properties":{"store_name":"West End Market","longitude":"-90.272179","latitude":"38.659401","address":"1148 Union Blvd","city":"Saint Louis","state":"MO","zip5":"63113","county":"ST LOUIS CITY","created_at":"2014-01-22T19:27:46Z","updated_at":"2014-02-05T22:35:31Z","category":"Convenience/Corner/Liquor Store","cartodb_id":503,"description":"T & T Liquor","website":null}},{"type":"Feature","geometry":{"type":"Point","coordinates":[-90.236565,38.691395]},"properties":{"store_name":"Kenyes Market 1","longitude":"-90.236565","latitude":"38.691395","address":"5477 N Kingshighway Blvd","city":"Saint Louis","state":"MO","zip5":"63115","county":"ST LOUIS CITY","created_at":"2014-01-22T19:27:46Z","updated_at":"2014-02-05T22:48:12Z","category":"Convenience/Corner/Liquor Store","cartodb_id":496,"description":"Kenny's Discount Cigarettes","website":null}},{"type":"Feature","geometry":{"type":"Point","coordinates":[-90.258667,38.678623]},"properties":{"store_name":"Royals Food And Liquor","longitude":"-90.258667","latitude":"38.678623","address":"3436 Union Blvd","city":"Saint Louis","state":"MO","zip5":"63115","county":"ST LOUIS CITY","created_at":"2014-01-22T19:27:46Z","updated_at":"2014-02-05T22:38:53Z","category":"Convenience/Corner/Liquor Store","cartodb_id":502,"description":null,"website":null}},{"type":"Feature","geometry":{"type":"Point","coordinates":[-90.220963,38.615631]},"properties":{"store_name":"Save-A-Lot 424","longitude":"-90.220963","latitude":"38.615631","address":"1631 S Jefferson Ave","city":"Saint Louis","state":"MO","zip5":"63104","county":"ST LOUIS CITY","created_at":"2014-01-22T19:27:46Z","updated_at":"2014-01-28T18:35:57Z","category":"Supermarket","cartodb_id":514,"description":null,"website":null}},{"type":"Feature","geometry":{"type":"Point","coordinates":[-90.231956,38.586704]},"properties":{"store_name":"Continental Grocery LLC","longitude":"-90.231956","latitude":"38.586704","address":"2808 Chippewa St","city":"Saint Louis","state":"MO","zip5":"63118","county":"ST LOUIS CITY","created_at":"2014-01-22T19:27:46Z","updated_at":"2014-06-10T19:42:33Z","category":"Convenience/Corner/Liquor Store","cartodb_id":479,"description":"(314) 762-0922","website":null}},{"type":"Feature","geometry":{"type":"Point","coordinates":[-90.217392,38.661392]},"properties":{"store_name":"Aldi Inc 48","longitude":"-90.217392","latitude":"38.661392","address":"3616 Natural Bridge Ave","city":"Saint Louis","state":"MO","zip5":"63107","county":"ST LOUIS CITY","created_at":"2014-01-22T19:27:46Z","updated_at":"2014-01-28T17:17:19Z","category":"Supermarket","cartodb_id":539,"description":null,"website":null}},{"type":"Feature","geometry":{"type":"Point","coordinates":[-90.208336,38.613255]},"properties":{"store_name":"Fields Foods 001","longitude":"-90.208336","latitude":"38.613255","address":"1500 Lafayette Ave","city":"Saint Louis","state":"MO","zip5":"63104","county":"ST LOUIS CITY","created_at":"2014-01-22T19:27:46Z","updated_at":"2014-01-28T18:00:34Z","category":"Supermarket","cartodb_id":522,"description":null,"website":null}},{"type":"Feature","geometry":{"type":"Point","coordinates":[-90.261414,38.557846]},"properties":{"store_name":"Schnucks 192","longitude":"-90.261414","latitude":"38.557846","address":"1020 Loughborough Ave","city":"Saint Louis","state":"MO","zip5":"63111","county":"ST LOUIS CITY","created_at":"2014-01-22T19:27:46Z","updated_at":"2014-01-28T18:36:55Z","category":"Supermarket","cartodb_id":546,"description":null,"website":null}},{"type":"Feature","geometry":{"type":"Point","coordinates":[-90.24749,38.64035]},"properties":{"store_name":"Schnucks 227","longitude":"-90.24749","latitude":"38.64035","address":"4171 Lindell Blvd","city":"Saint Louis","state":"MO","zip5":"63108","county":"ST LOUIS CITY","created_at":"2014-01-22T19:27:46Z","updated_at":"2014-01-28T18:40:22Z","category":"Supermarket","cartodb_id":543,"description":null,"website":null}},{"type":"Feature","geometry":{"type":"Point","coordinates":[-90.271614,38.591251]},"properties":{"store_name":"Shop N Save 1842","longitude":"-90.271614","latitude":"38.591251","address":"4660 Chippewa St","city":"Saint Louis","state":"MO","zip5":"63116","county":"ST LOUIS CITY","created_at":"2014-01-22T19:27:46Z","updated_at":"2014-01-28T18:39:51Z","category":"Supermarket","cartodb_id":548,"description":null,"website":null}},{"type":"Feature","geometry":{"type":"Point","coordinates":[-90.272476,38.664848]},"properties":{"store_name":"Hanks Confectionary","longitude":"-90.272476","latitude":"38.664848","address":"1403 Arlington Ave","city":"Saint Louis","state":"MO","zip5":"63112","county":"ST LOUIS CITY","created_at":"2014-01-22T19:27:46Z","updated_at":"2014-02-05T14:37:58Z","category":"Convenience/Corner/Liquor Store","cartodb_id":535,"description":null,"website":null}},{"type":"Feature","geometry":{"type":"Point","coordinates":[-90.254555,38.576122]},"properties":{"store_name":"Speedway Market","longitude":"-90.254555","latitude":"38.576122","address":"4760 S Spring Ave","city":"Saint Louis","state":"MO","zip5":"63116","county":"ST LOUIS CITY","created_at":"2014-01-22T19:27:46Z","updated_at":"2014-02-05T16:11:30Z","category":"Convenience/Corner/Liquor Store","cartodb_id":537,"description":null,"website":null}},{"type":"Feature","geometry":{"type":"Point","coordinates":[-90.262337,38.658112]},"properties":{"store_name":"Gateway Railroad Salvage","longitude":"-90.262337","latitude":"38.658112","address":"1206 N Kingshighway Blvd","city":"Saint Louis","state":"MO","zip5":"63113","county":"ST LOUIS CITY","created_at":"2014-01-22T19:27:46Z","updated_at":"2014-02-05T22:20:42Z","category":"Superette/Small Grocery","cartodb_id":534,"description":null,"website":null}},{"type":"Feature","geometry":{"type":"Point","coordinates":[-90.275421,38.677986]},"properties":{"store_name":"Price Chopper","longitude":"-90.275421","latitude":"38.677986","address":"2747 Goodfellow Blvd","city":"Saint Louis","state":"MO","zip5":"63112","county":"ST LOUIS CITY","created_at":"2014-01-22T19:27:46Z","updated_at":"2014-02-05T22:43:27Z","category":"Discount Store","cartodb_id":558,"description":"(314) 381-1722, http://www.pricechopper.com/","website":null}},{"type":"Feature","geometry":{"type":"Point","coordinates":[-90.252655,38.703705]},"properties":{"store_name":"Janey Corner LLC","longitude":"-90.252655","latitude":"38.703705","address":"5409 Riverview","city":"Saint Louis","state":"MO","zip5":"63120","county":"ST LOUIS CITY","created_at":"2014-01-22T19:27:46Z","updated_at":"2014-02-05T14:39:33Z","category":"Convenience/Corner/Liquor Store","cartodb_id":518,"description":"(314) 932-7762","website":null}},{"type":"Feature","geometry":{"type":"Point","coordinates":[-90.242981,38.689911]},"properties":{"store_name":"E & L Market","longitude":"-90.242981","latitude":"38.689911","address":"5120 Thekla Ave","city":"Saint Louis","state":"MO","zip5":"63115","county":"ST LOUIS CITY","created_at":"2014-01-22T19:27:46Z","updated_at":"2014-02-05T14:45:10Z","category":"Convenience/Corner/Liquor Store","cartodb_id":577,"description":"(314) 381-2402","website":null}},{"type":"Feature","geometry":{"type":"Point","coordinates":[-90.250748,38.572781]},"properties":{"store_name":"Kaiser Grand Mart","longitude":"-90.250748","latitude":"38.572781","address":"5008 S Grand Blvd","city":"Saint Louis","state":"MO","zip5":"63111","county":"ST LOUIS CITY","created_at":"2014-01-22T19:27:46Z","updated_at":"2014-02-05T16:00:34Z","category":"Gas Station Food Mart","cartodb_id":572,"description":"Phillips 66, (314) 752-8443","website":null}},{"type":"Feature","geometry":{"type":"Point","coordinates":[-90.244919,38.585976]},"properties":{"store_name":"International Foods","longitude":"-90.244919","latitude":"38.585976","address":"3905 S Grand Blvd","city":"Saint Louis","state":"MO","zip5":"63118","county":"ST LOUIS CITY","created_at":"2014-01-22T19:27:46Z","updated_at":"2014-02-05T16:57:24Z","category":"Superette/Small Grocery","cartodb_id":562,"description":"International Foods","website":null}},{"type":"Feature","geometry":{"type":"Point","coordinates":[-90.223282,38.604847]},"properties":{"store_name":"7-Eleven Store 20883F","longitude":"-90.223282","latitude":"38.604847","address":"2607 Gravois Ave","city":"Saint Louis","state":"MO","zip5":"63118","county":"ST LOUIS CITY","created_at":"2014-01-22T19:27:46Z","updated_at":"2014-02-05T20:48:09Z","category":"Convenience/Corner/Liquor Store","cartodb_id":568,"description":null,"website":null}},{"type":"Feature","geometry":{"type":"Point","coordinates":[-90.219299,38.589668]},"properties":{"store_name":"South Broadway Phillips","longitude":"-90.219299","latitude":"38.589668","address":"3605 S Broadway","city":"Saint Louis","state":"MO","zip5":"63118","county":"ST LOUIS CITY","created_at":"2014-01-22T19:27:46Z","updated_at":"2014-02-05T21:32:43Z","category":"Gas Station Food Mart","cartodb_id":481,"description":null,"website":null}},{"type":"Feature","geometry":{"type":"Point","coordinates":[-90.255798,38.656067]},"properties":{"store_name":"Family Food Market","longitude":"-90.255798","latitude":"38.656067","address":"4755 Newberry Terrace","city":"Saint Louis","state":"MO","zip5":"63113","county":"ST LOUIS CITY","created_at":"2014-01-22T19:27:46Z","updated_at":"2014-02-05T22:21:28Z","category":"Convenience/Corner/Liquor Store","cartodb_id":561,"description":null,"website":null}},{"type":"Feature","geometry":{"type":"Point","coordinates":[-90.282928,38.667259]},"properties":{"store_name":"Omars Food Shop","longitude":"-90.282928","latitude":"38.667259","address":"1307 Goodfellow Blvd","city":"Saint Louis","state":"MO","zip5":"63112","county":"ST LOUIS CITY","created_at":"2014-01-22T19:27:46Z","updated_at":"2014-02-05T22:27:52Z","category":"Convenience/Corner/Liquor Store","cartodb_id":564,"description":"(314) 382-2285","website":null}},{"type":"Feature","geometry":{"type":"Point","coordinates":[-90.289185,38.670166]},"properties":{"store_name":"DJs Package Liquor","longitude":"-90.289185","latitude":"38.670166","address":"6109 Page Blvd","city":"Saint Louis","state":"MO","zip5":"63133","county":"ST LOUIS","created_at":"2014-01-22T19:27:46Z","updated_at":"2014-02-05T22:30:56Z","category":"Convenience/Corner/Liquor Store","cartodb_id":555,"description":null,"website":null}},{"type":"Feature","geometry":{"type":"Point","coordinates":[-90.272255,38.659771]},"properties":{"store_name":"Walgreens 4834","longitude":"-90.272255","latitude":"38.659771","address":"1225 Union Blvd","city":"Saint Louis","state":"MO","zip5":"63113","county":"ST LOUIS CITY","created_at":"2014-01-22T19:27:46Z","updated_at":"2014-02-05T22:34:42Z","category":"Drugstore","cartodb_id":581,"description":null,"website":null}},{"type":"Feature","geometry":{"type":"Point","coordinates":[-90.25618,38.665291]},"properties":{"store_name":"Euclid Market Inc","longitude":"-90.25618","latitude":"38.665291","address":"2318 N Euclid Ave","city":"Saint Louis","state":"MO","zip5":"63113","county":"ST LOUIS CITY","created_at":"2014-01-22T19:27:46Z","updated_at":"2014-02-05T22:36:36Z","category":"Convenience/Corner/Liquor Store","cartodb_id":567,"description":"(314) 535-1450","website":null}},{"type":"Feature","geometry":{"type":"Point","coordinates":[-90.264595,38.670059]},"properties":{"store_name":"Moe's Mart & Connect","longitude":"-90.264595","latitude":"38.670059","address":"2408 Union Blvd","city":"Saint Louis","state":"MO","zip5":"63113","county":"ST LOUIS CITY","created_at":"2014-01-22T19:27:46Z","updated_at":"2014-02-05T22:37:11Z","category":"Convenience/Corner/Liquor Store","cartodb_id":477,"description":null,"website":null}},{"type":"Feature","geometry":{"type":"Point","coordinates":[-90.286072,38.675644]},"properties":{"store_name":"Kings Food Market","longitude":"-90.286072","latitude":"38.675644","address":"6116 Dr Martin Luther King Dr","city":"Saint Louis","state":"MO","zip5":"63133","county":"ST LOUIS","created_at":"2014-01-22T19:27:46Z","updated_at":"2014-02-05T22:45:18Z","category":"Convenience/Corner/Liquor Store","cartodb_id":536,"description":null,"website":null}},{"type":"Feature","geometry":{"type":"Point","coordinates":[-90.240059,38.681637]},"properties":{"store_name":"Macs Wholesale Meat","longitude":"-90.240059","latitude":"38.681637","address":"4343 Shreve Ave","city":"Saint Louis","state":"MO","zip5":"63115","county":"ST LOUIS CITY","created_at":"2014-01-22T19:27:46Z","updated_at":"2014-02-05T22:50:42Z","category":"Superette/Small Grocery","cartodb_id":529,"description":"Mac's Meat and Produce","website":null}},{"type":"Feature","geometry":{"type":"Point","coordinates":[-90.217316,38.597008]},"properties":{"store_name":"Joels Shell Foodmart","longitude":"-90.217316","latitude":"38.597008","address":"1815 Arsenal St","city":"Saint Louis","state":"MO","zip5":"63118","county":"ST LOUIS CITY","created_at":"2014-01-22T19:27:46Z","updated_at":"2014-02-05T23:11:33Z","category":"Gas Station Food Mart","cartodb_id":603,"description":null,"website":null}},{"type":"Feature","geometry":{"type":"Point","coordinates":[-90.22834,38.646408]},"properties":{"store_name":"SAVE A LOT 416","longitude":"-90.22834","latitude":"38.646408","address":"3645 Page Blvd","city":"Saint Louis","state":"MO","zip5":"63113","county":"ST LOUIS CITY","created_at":"2014-01-22T19:27:46Z","updated_at":"2014-05-13T15:51:08Z","category":"Supermarket","cartodb_id":661,"description":null,"website":null}},{"type":"Feature","geometry":{"type":"Point","coordinates":[-90.220451,38.641369]},"properties":{"store_name":"Express Market","longitude":"-90.220451","latitude":"38.641369","address":"3016 Dr Martin Luther King Dr","city":"Saint Louis","state":"MO","zip5":"63106","county":"ST LOUIS CITY","created_at":"2014-01-22T19:27:46Z","updated_at":"2014-04-03T19:07:58Z","category":"Healthy Corner Store Project","cartodb_id":595,"description":"Year 2, Healthy Corner Store Project, Partner: Community Renewal and Development, Inc. ","website":null}},{"type":"Feature","geometry":{"type":"Point","coordinates":[-90.258797,38.678619]},"properties":{"store_name":"Schnucks 113","longitude":"-90.258797","latitude":"38.678619","address":"3431 Union Blvd","city":"Saint Louis","state":"MO","zip5":"63115","county":"ST LOUIS CITY","created_at":"2014-01-22T19:27:46Z","updated_at":"2014-01-28T17:12:45Z","category":"Supermarket","cartodb_id":579,"description":null,"website":null}},{"type":"Feature","geometry":{"type":"Point","coordinates":[-90.315468,38.585293]},"properties":{"store_name":"Shop N Save 1843","longitude":"-90.315468","latitude":"38.585293","address":"7057 Chippewa St","city":"Saint Louis","state":"MO","zip5":"63119","county":"ST LOUIS","created_at":"2014-01-22T19:27:46Z","updated_at":"2014-01-28T18:34:06Z","category":"Supermarket","cartodb_id":619,"description":null,"website":null}},{"type":"Feature","geometry":{"type":"Point","coordinates":[-90.278,38.566322]},"properties":{"store_name":"Save A Lot 23854","longitude":"-90.278","latitude":"38.566322","address":"4324 Loughborough Ave","city":"Saint Louis","state":"MO","zip5":"63116","county":"ST LOUIS CITY","created_at":"2014-01-22T19:27:46Z","updated_at":"2014-01-28T18:40:38Z","category":"Supermarket","cartodb_id":580,"description":null,"website":null}},{"type":"Feature","geometry":{"type":"Point","coordinates":[-90.285721,38.660564]},"properties":{"store_name":"B & B Supermarket","longitude":"-90.285721","latitude":"38.660564","address":"954 Goodfellow Blvd","city":"Saint Louis","state":"MO","zip5":"63112","county":"ST LOUIS CITY","created_at":"2014-01-22T19:27:46Z","updated_at":"2014-04-03T19:10:14Z","category":"Healthy Corner Store Project","cartodb_id":606,"description":"(314) 454-1466, Year 2 Healthy Corner Store Project, Partner: West End Healthy Neighborhood Store Team","website":null}},{"type":"Feature","geometry":{"type":"Point","coordinates":[-90.250854,38.591557]},"properties":{"store_name":"Shop N Save 1844","longitude":"-90.250854","latitude":"38.591557","address":"3865 Gravois Ave","city":"Saint Louis","state":"MO","zip5":"63116","county":"ST LOUIS CITY","created_at":"2014-01-22T19:27:46Z","updated_at":"2014-01-30T23:49:39Z","category":"Supermarket","cartodb_id":651,"description":null,"website":null}},{"type":"Feature","geometry":{"type":"Point","coordinates":[-90.244194,38.581127]},"properties":{"store_name":"Village Too","longitude":"-90.244194","latitude":"38.581127","address":"4164 S Grand Blvd","city":"Saint Louis","state":"MO","zip5":"63118","county":"ST LOUIS CITY","created_at":"2014-01-22T19:27:46Z","updated_at":"2014-02-05T14:30:07Z","category":"Convenience/Corner/Liquor Store","cartodb_id":645,"description":"Healthy Corner Store Project, (314) 353-9600","website":null}},{"type":"Feature","geometry":{"type":"Point","coordinates":[-90.247993,38.690033]},"properties":{"store_name":"Union Supermarket","longitude":"-90.247993","latitude":"38.690033","address":"4962 Union Blvd","city":"Saint Louis","state":"MO","zip5":"63115","county":"ST LOUIS CITY","created_at":"2014-01-22T19:27:46Z","updated_at":"2014-02-05T14:46:26Z","category":"Convenience/Corner/Liquor Store","cartodb_id":612,"description":"(314) 261-6669","website":null}},{"type":"Feature","geometry":{"type":"Point","coordinates":[-90.246178,38.702999]},"properties":{"store_name":"Gas Mart 2","longitude":"-90.246178","latitude":"38.702999","address":"5728 W Florissant Ave","city":"Saint Louis","state":"MO","zip5":"63120","county":"ST LOUIS CITY","created_at":"2014-01-22T19:27:46Z","updated_at":"2014-02-05T15:43:37Z","category":"Gas Station Food Mart","cartodb_id":657,"description":null,"website":null}},{"type":"Feature","geometry":{"type":"Point","coordinates":[-90.227646,38.679375]},"properties":{"store_name":"M-1 Food Market","longitude":"-90.227646","latitude":"38.679375","address":"4600 Pope Ave","city":"Saint Louis","state":"MO","zip5":"63115","county":"ST LOUIS CITY","created_at":"2014-01-22T19:27:46Z","updated_at":"2014-02-05T22:51:36Z","category":"Convenience/Corner/Liquor Store","cartodb_id":644,"description":null,"website":null}},{"type":"Feature","geometry":{"type":"Point","coordinates":[-90.254036,38.56892]},"properties":{"store_name":"Walgreens 2151","longitude":"-90.254036","latitude":"38.56892","address":"5550 S Grand Blvd","city":"Saint Louis","state":"MO","zip5":"63111","county":"ST LOUIS CITY","created_at":"2014-01-22T19:27:46Z","updated_at":"2014-02-05T16:04:07Z","category":"Drugstore","cartodb_id":664,"description":null,"website":null}},{"type":"Feature","geometry":{"type":"Point","coordinates":[-90.228874,38.580067]},"properties":{"store_name":"Walgreens 3686","longitude":"-90.228874","latitude":"38.580067","address":"4140 S Broadway","city":"Saint Louis","state":"MO","zip5":"63118","county":"ST LOUIS CITY","created_at":"2014-01-22T19:27:46Z","updated_at":"2014-02-04T18:58:03Z","category":"Drugstore","cartodb_id":634,"description":null,"website":null}},{"type":"Feature","geometry":{"type":"Point","coordinates":[-90.30896,38.616566]},"properties":{"store_name":"Walgreens 1107","longitude":"-90.30896","latitude":"38.616566","address":"2310 McCausland Ave","city":"Saint Louis","state":"MO","zip5":"63143","county":"ST LOUIS","created_at":"2014-01-22T19:27:46Z","updated_at":"2014-02-04T19:07:03Z","category":"Drugstore","cartodb_id":627,"description":null,"website":null}},{"type":"Feature","geometry":{"type":"Point","coordinates":[-90.244972,38.592197]},"properties":{"store_name":"Walgreens 7144","longitude":"-90.244972","latitude":"38.592197","address":"3631 Gravois Ave","city":"Saint Louis","state":"MO","zip5":"63116","county":"ST LOUIS CITY","created_at":"2014-01-22T19:27:46Z","updated_at":"2014-02-04T19:08:57Z","category":"Drugstore","cartodb_id":625,"description":null,"website":null}},{"type":"Feature","geometry":{"type":"Point","coordinates":[-90.26918,38.605431]},"properties":{"store_name":"Walgreens 5304","longitude":"-90.26918","latitude":"38.605431","address":"2933 S Kingshighway Blvd","city":"Saint Louis","state":"MO","zip5":"63139","county":"ST LOUIS CITY","created_at":"2014-01-22T19:27:46Z","updated_at":"2014-02-04T19:09:21Z","category":"Drugstore","cartodb_id":599,"description":null,"website":null}},{"type":"Feature","geometry":{"type":"Point","coordinates":[-90.198044,38.661762]},"properties":{"store_name":"Salisbury Mobil","longitude":"-90.198044","latitude":"38.661762","address":"1113 Salisbury St","city":"Saint Louis","state":"MO","zip5":"63107","county":"ST LOUIS CITY","created_at":"2014-01-22T19:27:46Z","updated_at":"2014-02-05T15:32:36Z","category":"Gas Station Food Mart","cartodb_id":591,"description":null,"website":null}},{"type":"Feature","geometry":{"type":"Point","coordinates":[-90.2444,38.589226]},"properties":{"store_name":"Aldi Inc 57","longitude":"-90.2444","latitude":"38.589226","address":"3721 S Grand Blvd","city":"Saint Louis","state":"MO","zip5":"63118","county":"ST LOUIS CITY","created_at":"2014-01-22T19:27:46Z","updated_at":"2014-02-05T17:27:48Z","category":"Supermarket","cartodb_id":677,"description":null,"website":null}},{"type":"Feature","geometry":{"type":"Point","coordinates":[-90.239746,38.586163]},"properties":{"store_name":"Regal Food 2","longitude":"-90.239746","latitude":"38.586163","address":"3852 Virginia Ave","city":"Saint Louis","state":"MO","zip5":"63118","county":"ST LOUIS CITY","created_at":"2014-01-22T19:27:46Z","updated_at":"2014-02-05T17:36:02Z","category":"Convenience/Corner/Liquor Store","cartodb_id":663,"description":null,"website":null}},{"type":"Feature","geometry":{"type":"Point","coordinates":[-90.233315,38.58952]},"properties":{"store_name":"Brandi's Market","longitude":"-90.233315","latitude":"38.58952","address":"3659 Nebraska Ave","city":"Saint Louis","state":"MO","zip5":"63118","county":"ST LOUIS CITY","created_at":"2014-01-22T19:27:46Z","updated_at":"2014-02-05T20:48:48Z","category":"Convenience/Corner/Liquor Store","cartodb_id":654,"description":null,"website":null}},{"type":"Feature","geometry":{"type":"Point","coordinates":[-90.277466,38.667385]},"properties":{"store_name":"KB Snacks & Confectionary","longitude":"-90.277466","latitude":"38.667385","address":"5598 Ridge Ave","city":"Saint Louis","state":"MO","zip5":"63112","county":"ST LOUIS CITY","created_at":"2014-01-22T19:27:46Z","updated_at":"2014-02-05T22:29:09Z","category":"Convenience/Corner/Liquor Store","cartodb_id":656,"description":"(314) 367-2757","website":null}},{"type":"Feature","geometry":{"type":"Point","coordinates":[-90.258194,38.679237]},"properties":{"store_name":"Kings Food Phillips","longitude":"-90.258194","latitude":"38.679237","address":"3700 Union Blvd","city":"Saint Louis","state":"MO","zip5":"63115","county":"ST LOUIS CITY","created_at":"2014-01-22T19:27:46Z","updated_at":"2014-02-05T22:46:11Z","category":"Gas Station Food Mart","cartodb_id":650,"description":null,"website":null}},{"type":"Feature","geometry":{"type":"Point","coordinates":[-90.287468,38.675827]},"properties":{"store_name":"HRM Amoco","longitude":"-90.287468","latitude":"38.675827","address":"1491 Kienlen Ave","city":"Saint Louis","state":"MO","zip5":"63133","county":"ST LOUIS","created_at":"2014-01-22T19:27:46Z","updated_at":"2014-02-05T23:11:26Z","category":"Gas Station Food Mart","cartodb_id":679,"description":null,"website":null}},{"type":"Feature","geometry":{"type":"Point","coordinates":[-90.263344,38.652443]},"properties":{"store_name":"Aldi Inc 54","longitude":"-90.263344","latitude":"38.652443","address":"702 N Kingshighway Blvd","city":"Saint Louis","state":"MO","zip5":"63108","county":"ST LOUIS CITY","created_at":"2014-01-22T19:27:46Z","updated_at":"2014-01-28T17:49:37Z","category":"Supermarket","cartodb_id":673,"description":null,"website":null}},{"type":"Feature","geometry":{"type":"Point","coordinates":[-90.243423,38.594944]},"properties":{"store_name":"Schnucks 143","longitude":"-90.243423","latitude":"38.594944","address":"3430 S Grand Blvd","city":"Saint Louis","state":"MO","zip5":"63118","county":"ST LOUIS CITY","created_at":"2014-01-22T19:27:46Z","updated_at":"2014-01-28T17:54:03Z","category":"Supermarket","cartodb_id":701,"description":null,"website":null}},{"type":"Feature","geometry":{"type":"Point","coordinates":[-90.282555,38.572502]},"properties":{"store_name":"Aldi Inc 19","longitude":"-90.282555","latitude":"38.572502","address":"6601 Gravois Ave","city":"Saint Louis","state":"MO","zip5":"63116","county":"ST LOUIS CITY","created_at":"2014-01-22T19:27:46Z","updated_at":"2014-01-28T18:01:11Z","category":"Supermarket","cartodb_id":712,"description":null,"website":null}},{"type":"Feature","geometry":{"type":"Point","coordinates":[-90.274391,38.605587]},"properties":{"store_name":"Schnucks 149","longitude":"-90.274391","latitude":"38.605587","address":"5055 Arsenal St","city":"Saint Louis","state":"MO","zip5":"63139","county":"ST LOUIS CITY","created_at":"2014-01-22T19:27:46Z","updated_at":"2014-01-28T18:29:08Z","category":"Supermarket","cartodb_id":705,"description":null,"website":null}},{"type":"Feature","geometry":{"type":"Point","coordinates":[-90.249161,38.640621]},"properties":{"store_name":"Walgreens 6772","longitude":"-90.249161","latitude":"38.640621","address":"4218 Lindell Blvd","city":"Saint Louis","state":"MO","zip5":"63108","county":"ST LOUIS CITY","created_at":"2014-01-22T19:27:46Z","updated_at":"2014-02-04T18:58:25Z","category":"Drugstore","cartodb_id":749,"description":null,"website":null}},{"type":"Feature","geometry":{"type":"Point","coordinates":[-90.213661,38.63699]},"properties":{"store_name":"EXPRESS PETROLEUM","longitude":"-90.213661","latitude":"38.63699","address":"2601 Delmar Blvd","city":"Saint Louis","state":"MO","zip5":"63103","county":"ST LOUIS CITY","created_at":"2014-01-22T19:27:46Z","updated_at":"2014-02-05T15:29:26Z","category":"Gas Station Food Mart","cartodb_id":692,"description":null,"website":null}},{"type":"Feature","geometry":{"type":"Point","coordinates":[-90.246803,38.564545]},"properties":{"store_name":"7-Eleven Store 27472F","longitude":"-90.246803","latitude":"38.564545","address":"509 Bates St","city":"Saint Louis","state":"MO","zip5":"63111","county":"ST LOUIS CITY","created_at":"2014-01-22T19:27:46Z","updated_at":"2014-02-05T15:56:13Z","category":"Convenience/Corner/Liquor Store","cartodb_id":700,"description":"7-Eleven","website":null}},{"type":"Feature","geometry":{"type":"Point","coordinates":[-90.293953,38.59409]},"properties":{"store_name":"Walgreens 06755","longitude":"-90.293953","latitude":"38.59409","address":"3920 Hampton Ave","city":"Saint Louis","state":"MO","zip5":"63109","county":"ST LOUIS CITY","created_at":"2014-01-22T19:27:46Z","updated_at":"2014-02-04T18:57:46Z","category":"Drugstore","cartodb_id":750,"description":null,"website":null}},{"type":"Feature","geometry":{"type":"Point","coordinates":[-90.244316,38.589115]},"properties":{"store_name":"Afghan Market","longitude":"-90.244316","latitude":"38.589115","address":"3732 S Grand Blvd","city":"Saint Louis","state":"MO","zip5":"63118","county":"ST LOUIS CITY","created_at":"2014-01-22T19:27:46Z","updated_at":"2014-02-05T17:30:58Z","category":"Convenience/Corner/Liquor Store","cartodb_id":678,"description":" (314) 664-5555, no vegetables","website":null}},{"type":"Feature","geometry":{"type":"Point","coordinates":[-90.238503,38.587551]},"properties":{"store_name":"Que Huong Market","longitude":"-90.238503","latitude":"38.587551","address":"3200 Chippewa St","city":"Saint Louis","state":"MO","zip5":"63118","county":"ST LOUIS CITY","created_at":"2014-01-22T19:27:46Z","updated_at":"2014-02-05T17:39:00Z","category":"Convenience/Corner/Liquor Store","cartodb_id":687,"description":"(314) 772-9394","website":null}},{"type":"Feature","geometry":{"type":"Point","coordinates":[-90.201126,38.607159]},"properties":{"store_name":"Globe Cut Rate Drugs","longitude":"-90.201126","latitude":"38.607159","address":"1900 S Broadway","city":"Saint Louis","state":"MO","zip5":"63104","county":"ST LOUIS CITY","created_at":"2014-01-22T19:27:46Z","updated_at":"2014-02-05T20:41:27Z","category":"Convenience/Corner/Liquor Store","cartodb_id":731,"description":null,"website":null}},{"type":"Feature","geometry":{"type":"Point","coordinates":[-90.22718,38.593529]},"properties":{"store_name":"Buying Group Of St Louis","longitude":"-90.22718","latitude":"38.593529","address":"2639 Cherokee St","city":"Saint Louis","state":"MO","zip5":"63118","county":"ST LOUIS CITY","created_at":"2014-01-22T19:27:46Z","updated_at":"2014-02-05T21:32:20Z","category":"Specialty Store","cartodb_id":713,"description":"Co-op. Behind Black Bear Bakery. http://www.cityfoodcoopstl.com/index.html","website":null}},{"type":"Feature","geometry":{"type":"Point","coordinates":[-90.2995,38.619495]},"properties":{"store_name":"Dollar General 2765","longitude":"-90.2995","latitude":"38.619495","address":"6574 Manchester Ave","city":"Saint Louis","state":"MO","zip5":"63139","county":"ST LOUIS CITY","created_at":"2014-01-22T19:27:46Z","updated_at":"2014-02-05T22:03:44Z","category":"Discount Store","cartodb_id":684,"description":null,"website":null}},{"type":"Feature","geometry":{"type":"Point","coordinates":[-90.261398,38.645927]},"properties":{"store_name":"Golden Grocer Natural Foods","longitude":"-90.261398","latitude":"38.645927","address":"335 N Euclid Ave","city":"Saint Louis","state":"MO","zip5":"63108","county":"ST LOUIS CITY","created_at":"2014-01-22T19:27:46Z","updated_at":"2014-02-05T22:08:37Z","category":"Superette/Small Grocery","cartodb_id":738,"description":"Natural Foods. 314-367-0405. http://www.goldengrocer.com/","website":null}},{"type":"Feature","geometry":{"type":"Point","coordinates":[-90.233826,38.648754]},"properties":{"store_name":"Sarah Easton Poultry","longitude":"-90.233826","latitude":"38.648754","address":"1300 N Vandeventer Ave","city":"Saint Louis","state":"MO","zip5":"63113","county":"ST LOUIS CITY","created_at":"2014-01-22T19:27:46Z","updated_at":"2014-02-05T22:15:31Z","category":"Convenience/Corner/Liquor Store","cartodb_id":706,"description":"(314) 371-2938. Seafood, poultry, eggs.","website":null}},{"type":"Feature","geometry":{"type":"Point","coordinates":[-90.267235,38.677135]},"properties":{"store_name":"Belt Loop","longitude":"-90.267235","latitude":"38.677135","address":"5501 Saint Louis Ave","city":"Saint Louis","state":"MO","zip5":"63120","county":"ST LOUIS CITY","created_at":"2014-01-22T19:27:46Z","updated_at":"2014-02-05T22:39:58Z","category":"Convenience/Corner/Liquor Store","cartodb_id":702,"description":"(314) 383-0688","website":null}},{"type":"Feature","geometry":{"type":"Point","coordinates":[-90.241135,38.680214]},"properties":{"store_name":"Sams St Louis Packing","longitude":"-90.241135","latitude":"38.680214","address":"4257 Shreve Ave","city":"Saint Louis","state":"MO","zip5":"63115","county":"ST LOUIS CITY","created_at":"2014-01-22T19:27:46Z","updated_at":"2014-02-05T22:46:48Z","category":"Convenience/Corner/Liquor Store","cartodb_id":734,"description":null,"website":null}},{"type":"Feature","geometry":{"type":"Point","coordinates":[-90.227455,38.675835]},"properties":{"store_name":"Yeatman Market","longitude":"-90.227455","latitude":"38.675835","address":"4401 Athlone Ave","city":"Saint Louis","state":"MO","zip5":"63115","county":"ST LOUIS CITY","created_at":"2014-01-22T19:27:46Z","updated_at":"2014-02-05T22:53:55Z","category":"Convenience/Corner/Liquor Store","cartodb_id":744,"description":"(314) 381-6132","website":null}},{"type":"Feature","geometry":{"type":"Point","coordinates":[-90.213638,38.665646]},"properties":{"store_name":"Schnucks 281","longitude":"-90.213638","latitude":"38.665646","address":"4127 N Grand Blvd","city":"Saint Louis","state":"MO","zip5":"63107","county":"ST LOUIS CITY","created_at":"2014-01-22T19:27:46Z","updated_at":"2014-05-20T16:40:09Z","category":"Supermarket","cartodb_id":544,"description":"CLOSED 5/10/14","website":null}},{"type":"Feature","geometry":{"type":"Point","coordinates":[-90.292175,38.593155]},"properties":{"store_name":"Schnucks 258","longitude":"-90.292175","latitude":"38.593155","address":"60 Hampton Village Plz","city":"Saint Louis","state":"MO","zip5":"63109","county":"ST LOUIS CITY","created_at":"2014-01-22T19:27:46Z","updated_at":"2014-01-28T17:48:15Z","category":"Supermarket","cartodb_id":542,"description":null,"website":null}},{"type":"Feature","geometry":{"type":"Point","coordinates":[-90.315033,38.613441]},"properties":{"store_name":"Schlafly Farmers Market","longitude":"-90.315033","latitude":"38.613441","address":"7260 Southwest Ave","city":"Saint Louis","state":"MO","zip5":"63143","county":"ST LOUIS","created_at":"2014-01-22T19:27:46Z","updated_at":"2014-02-28T19:07:43Z","category":"Farmers Market/Farm","cartodb_id":469,"description":"Open Wednesdays from 4:00-7:00 PM in the NE parking lot in front of the Schlafly Bottleworks. ","website":"http://schlaflyfarmersmarket.com/"}},{"type":"Feature","geometry":{"type":"Point","coordinates":[-90.29467,38.565327]},"properties":{"store_name":"Schnucks 107","longitude":"-90.29467","latitude":"38.565327","address":"7450 Hampton Ave","city":"Saint Louis","state":"MO","zip5":"63109","county":"ST LOUIS CITY","created_at":"2014-01-22T19:27:46Z","updated_at":"2014-01-30T23:46:06Z","category":"Supermarket","cartodb_id":15,"description":null,"website":null}},{"type":"Feature","geometry":{"type":"Point","coordinates":[-90.259552,38.606945]},"properties":{"store_name":"Tower Grove Farmers Market & Bazaar","longitude":"-90.249252","latitude":"38.600708","address":"3877 Connecticut St","city":"Saint Louis","state":"MO","zip5":"63116","county":"ST LOUIS CITY","created_at":"2014-01-22T19:27:46Z","updated_at":"2014-02-28T19:27:43Z","category":"Farmers Market/Farm","cartodb_id":268,"description":"They are listed as accepting EBT but do not, as far as I know, actually take food stamps currently. ","website":"http://www.tgmarket.org/"}},{"type":"Feature","geometry":{"type":"Point","coordinates":[-90.275642,38.670002]},"properties":{"store_name":"Crown Food Mart 7","longitude":"-90.275642","latitude":"38.670002","address":"5588 Mlking Dr","city":"Saint Louis","state":"MO","zip5":"63112","county":"ST LOUIS CITY","created_at":"2014-01-22T19:27:46Z","updated_at":"2014-03-04T21:20:22Z","category":"Gas Station Food Mart","cartodb_id":114,"description":null,"website":null}},{"type":"Feature","geometry":{"type":"Point","coordinates":[-90.197647,38.651253]},"properties":{"store_name":"Old North St Louis Restoration GR","longitude":"-90.197647","latitude":"38.651253","address":"St. Louis & 14th Street","city":"Saint Louis","state":"MO","zip5":"63107","county":"ST LOUIS CITY","created_at":"2014-01-22T19:27:46Z","updated_at":"2014-01-31T16:47:05Z","category":"Farmers Market/Farm","cartodb_id":127,"description":null,"website":null}},{"type":"Feature","geometry":{"type":"Point","coordinates":[-90.244781,38.686821]},"properties":{"store_name":"S AND M MARKET","longitude":"-90.244781","latitude":"38.686821","address":"5001 N Kingshwy Blvd","city":"Saint Louis","state":"MO","zip5":"63115","county":"ST LOUIS CITY","created_at":"2014-01-22T19:27:46Z","updated_at":"2014-02-05T14:35:48Z","category":"Convenience/Corner/Liquor Store","cartodb_id":707,"description":"(314) 381-4848","website":null}},{"type":"Feature","geometry":{"type":"Point","coordinates":[-90.25901,38.546543]},"properties":{"store_name":"South Public Market","longitude":"-90.25901","latitude":"38.546543","address":"7701 S Broadway","city":"Saint Louis","state":"MO","zip5":"63111","county":"ST LOUIS CITY","created_at":"2014-01-22T19:27:46Z","updated_at":"2014-02-05T15:52:39Z","category":"Convenience/Corner/Liquor Store","cartodb_id":223,"description":"(314) 638-7783","website":null}},{"type":"Feature","geometry":{"type":"Point","coordinates":[-90.250183,38.707569]},"properties":{"store_name":"F & G Foods","longitude":"-90.250183","latitude":"38.707569","address":"5932 W Florissant Ave","city":"Saint Louis","state":"MO","zip5":"63136","county":"ST LOUIS","created_at":"2014-01-22T19:27:46Z","updated_at":"2014-02-05T14:33:45Z","category":"Convenience/Corner/Liquor Store","cartodb_id":736,"description":"(314) 261-0294","website":null}},{"type":"Feature","geometry":{"type":"Point","coordinates":[-90.253754,38.616432]},"properties":{"store_name":"Shaw Market (formerly Regal Food III) ","longitude":"-90.253754","latitude":"38.616432","address":"4200 Shaw Blvd","city":"Saint Louis","state":"MO","zip5":"63110","county":"ST LOUIS CITY","created_at":"2014-01-22T19:27:46Z","updated_at":"2014-04-03T19:09:05Z","category":"Healthy Corner Store Project","cartodb_id":615,"description":"Year 1, Healthy Corner Store Project, Partner: Shaw Neighborhood Improvement Association","website":null}},{"type":"Feature","geometry":{"type":"Point","coordinates":[-90.270897,38.685757]},"properties":{"store_name":"Natural Bridge Mobil","longitude":"-90.270897","latitude":"38.685757","address":"5750 Natural Bridge Ave","city":"Saint Louis","state":"MO","zip5":"63120","county":"ST LOUIS CITY","created_at":"2014-01-22T19:27:46Z","updated_at":"2014-02-05T15:33:12Z","category":"Gas Station Food Mart","cartodb_id":516,"description":null,"website":null}},{"type":"Feature","geometry":{"type":"Point","coordinates":[-90.227943,38.725971]},"properties":{"store_name":"Quick Stop Mini Mart","longitude":"-90.227943","latitude":"38.725971","address":"8880 N Broadway","city":"Saint Louis","state":"MO","zip5":"63147","county":"ST LOUIS CITY","created_at":"2014-01-22T19:27:46Z","updated_at":"2014-02-05T02:55:45Z","category":"Gas Station Food Mart","cartodb_id":100,"description":null,"website":null}},{"type":"Feature","geometry":{"type":"Point","coordinates":[-90.262138,38.626312]},"properties":{"store_name":"Manchester Market","longitude":"-90.262138","latitude":"38.626312","address":"4519 Manchester Ave","city":"Saint Louis","state":"MO","zip5":"63110","county":"ST LOUIS CITY","created_at":"2014-01-22T19:27:46Z","updated_at":"2014-04-03T19:08:36Z","category":"Healthy Corner Store Project","cartodb_id":570,"description":"(314) 371-1492, Year 1 Healthy Corner Store Project, Partner: Forest Park Southeast Healthy Neighborhood Store Team","website":null}},{"type":"Feature","geometry":{"type":"Point","coordinates":[-90.240288,38.721233]},"properties":{"store_name":"SAVE A LOT 411","longitude":"-90.240288","latitude":"38.721233","address":"8960 RIVERVIEW BLVD","city":"ST LOUIS","state":"MO","zip5":"63147","county":"ST LOUIS CITY","created_at":"2014-01-22T19:27:46Z","updated_at":"2014-05-13T15:50:59Z","category":"Supermarket","cartodb_id":588,"description":null,"website":null}},{"type":"Feature","geometry":{"type":"Point","coordinates":[-90.233154,38.668262]},"properties":{"store_name":"Midwest Petroleum/MPC 67","longitude":"-90.233154","latitude":"38.668262","address":"4216 W Natural Bridge Ave","city":"Saint Louis","state":"MO","zip5":"63115","county":"ST LOUIS CITY","created_at":"2014-01-22T19:27:46Z","updated_at":"2014-02-05T17:46:05Z","category":"Gas Station Food Mart","cartodb_id":205,"description":null,"website":null}},{"type":"Feature","geometry":{"type":"Point","coordinates":[-90.255684,38.713726]},"properties":{"store_name":"Dynasty Discount And More","longitude":"-90.255684","latitude":"38.713726","address":"6321 W Florissant Ave","city":"Saint Louis","state":"MO","zip5":"63136","county":"ST LOUIS","created_at":"2014-01-22T19:27:46Z","updated_at":"2014-02-05T15:43:06Z","category":"Convenience/Corner/Liquor Store","cartodb_id":487,"description":"(314) 383-8111","website":null}},{"type":"Feature","geometry":{"type":"Point","coordinates":[-90.271591,38.661491]},"properties":{"store_name":"Petes Shur Sav Market","longitude":"-90.271591","latitude":"38.661491","address":"1301 Union Blvd","city":"Saint Louis","state":"MO","zip5":"63113","county":"ST LOUIS CITY","created_at":"2014-01-22T19:27:46Z","updated_at":"2014-02-05T22:33:00Z","category":"Superette/Small Grocery","cartodb_id":755,"description":"(314) 367-4444, http://www.petesshursavmarkets.com/","website":null}},{"type":"Feature","geometry":{"type":"Point","coordinates":[-90.216209,38.660873]},"properties":{"store_name":"Amoco Food Shop","longitude":"-90.216209","latitude":"38.660873","address":"3520 Natural Bridge Ave","city":"Saint Louis","state":"MO","zip5":"63107","county":"ST LOUIS CITY","created_at":"2014-01-22T19:27:46Z","updated_at":"2014-02-05T15:32:46Z","category":"Gas Station Food Mart","cartodb_id":675,"description":null,"website":null}},{"type":"Feature","geometry":{"type":"Point","coordinates":[-90.249878,38.718414]},"properties":{"store_name":"Nasif Corner","longitude":"-90.249878","latitude":"38.718414","address":"1823 McLaran Ave","city":"Saint Louis","state":"MO","zip5":"63147","county":"ST LOUIS CITY","created_at":"2014-01-22T19:27:46Z","updated_at":"2014-02-05T15:39:24Z","category":"Convenience/Corner/Liquor Store","cartodb_id":221,"description":"(314) 867-3507","website":null}},{"type":"Feature","geometry":{"type":"Point","coordinates":[-90.251526,38.709202]},"properties":{"store_name":"Gas Mart","longitude":"-90.251526","latitude":"38.709202","address":"6001 W Florissant Ave","city":"Saint Louis","state":"MO","zip5":"63136","county":"ST LOUIS","created_at":"2014-01-22T19:27:46Z","updated_at":"2014-02-05T15:43:27Z","category":"Gas Station Food Mart","cartodb_id":626,"description":null,"website":null}},{"type":"Feature","geometry":{"type":"Point","coordinates":[-90.228386,38.72419]},"properties":{"store_name":"On Broadway Enterprises Llc","longitude":"-90.228386","latitude":"38.72419","address":"8815 N Broadway","city":"Saint Louis","state":"MO","zip5":"63147","county":"ST LOUIS CITY","created_at":"2014-01-22T19:27:46Z","updated_at":"2014-02-05T15:34:09Z","category":"Gas Station Food Mart","cartodb_id":320,"description":null,"website":null}},{"type":"Feature","geometry":{"type":"Point","coordinates":[-90.23671,38.602066]},"properties":{"store_name":"Salama-Arsenal Market","longitude":"-90.23671","latitude":"38.602066","address":"3301 Arsenal St","city":"Saint Louis","state":"MO","zip5":"63118","county":"ST LOUIS CITY","created_at":"2014-01-22T19:27:46Z","updated_at":"2014-02-05T14:48:44Z","category":"Convenience/Corner/Liquor Store","cartodb_id":523,"description":"(314) 772-2222","website":null}},{"type":"Feature","geometry":{"type":"Point","coordinates":[-90.241302,38.634697]},"properties":{"store_name":"Gas House Car Wash","longitude":"-90.241302","latitude":"38.634697","address":"3853 Forest Park Ave","city":"Saint Louis","state":"MO","zip5":"63108","county":"ST LOUIS CITY","created_at":"2014-01-22T19:27:46Z","updated_at":"2014-02-05T15:29:40Z","category":"Gas Station Food Mart","cartodb_id":254,"description":null,"website":null}},{"type":"Feature","geometry":{"type":"Point","coordinates":[-90.233009,38.710911]},"properties":{"store_name":"City Greens - Father Tolton","longitude":"-90.233009","latitude":"38.710911","address":"1022 Baden Ave","city":"Saint Louis","state":"MO","zip5":"63147","county":"ST LOUIS CITY","created_at":"2014-01-22T19:27:46Z","updated_at":"2014-02-05T17:56:47Z","category":"Specialty Store","cartodb_id":260,"description":"? Is this related to City Greens Midtown Catholic Charities? ","website":null}},{"type":"Feature","geometry":{"type":"Point","coordinates":[-90.227203,38.65752]},"properties":{"store_name":"Midwest Petroleum 71","longitude":"-90.227203","latitude":"38.65752","address":"2821 N Vandeventer Ave","city":"Saint Louis","state":"MO","zip5":"63107","county":"ST LOUIS CITY","created_at":"2014-01-22T19:27:46Z","updated_at":"2014-02-05T19:20:42Z","category":"Gas Station Food Mart","cartodb_id":368,"description":null,"website":null}},{"type":"Feature","geometry":{"type":"Point","coordinates":[-90.283578,38.658711]},"properties":{"store_name":"West End Farmers Market","longitude":"-90.287827","latitude":"38.665413","address":"Ruth Porter Mall Trail\n","city":"Saint Louis","state":"MO","zip5":"63112 St Louis, MO 63112","county":"ST LOUIS CITY","created_at":"2014-01-22T19:27:46Z","updated_at":"2014-09-24T18:28:40Z","category":"Farmers Market/Farm","cartodb_id":458,"description":null,"website":"http://www.iistl.org/globalfarm.html"}},{"type":"Feature","geometry":{"type":"Point","coordinates":[-90.315918,38.585011]},"properties":{"store_name":"DEALS 3331","longitude":"-90.315918","latitude":"38.585011","address":"7077 Chippewa St","city":"Saint Louis","state":"MO","zip5":"63119","county":"ST LOUIS","created_at":"2014-01-22T19:27:46Z","updated_at":"2014-02-05T01:32:16Z","category":"Discount Store","cartodb_id":51,"description":null,"website":null}},{"type":"Feature","geometry":{"type":"Point","coordinates":[-90.182106,38.769386]},"properties":{"store_name":"Riverview Motomart 3356","longitude":"-90.182106","latitude":"38.769386","address":"11005 Riverview Dr","city":"Saint Louis","state":"MO","zip5":"63138","county":"ST LOUIS","created_at":"2014-01-22T19:27:46Z","updated_at":"2014-02-05T15:34:44Z","category":"Gas Station Food Mart","cartodb_id":308,"description":null,"website":null}},{"type":"Feature","geometry":{"type":"Point","coordinates":[-90.226585,38.647064]},"properties":{"store_name":"Walgreens 10588","longitude":"-90.226585","latitude":"38.647064","address":"1400 N Grand Blvd","city":"Saint Louis","state":"MO","zip5":"63106","county":"ST LOUIS CITY","created_at":"2014-01-22T19:27:46Z","updated_at":"2014-02-04T18:49:47Z","category":"Drugstore","cartodb_id":118,"description":null,"website":null}},{"type":"Feature","geometry":{"type":"Point","coordinates":[-90.233871,38.715282]},"properties":{"store_name":"Ms Lindas Snack Shack","longitude":"-90.233871","latitude":"38.715282","address":"1102 McLaran Ave","city":"Saint Louis","state":"MO","zip5":"63147","county":"ST LOUIS CITY","created_at":"2014-01-22T19:27:46Z","updated_at":"2014-02-05T15:41:07Z","category":"Convenience/Corner/Liquor Store","cartodb_id":366,"description":"Call in. Carry out. Catering. BBQ.","website":null}},{"type":"Feature","geometry":{"type":"Point","coordinates":[-90.268806,38.612377]},"properties":{"store_name":"Walgreens 2019","longitude":"-90.268806","latitude":"38.612377","address":"4925 Southwest Ave","city":"Saint Louis","state":"MO","zip5":"63110","county":"ST LOUIS CITY","created_at":"2014-01-22T19:27:46Z","updated_at":"2014-02-04T18:57:39Z","category":"Drugstore","cartodb_id":753,"description":null,"website":null}},{"type":"Feature","geometry":{"type":"Point","coordinates":[-90.295021,38.563667]},"properties":{"store_name":"CVS Pharmacy 5669","longitude":"-90.295021","latitude":"38.563667","address":"7320 Gravois Ave","city":"Saint Louis","state":"MO","zip5":"63116","county":"ST LOUIS CITY","created_at":"2014-01-22T19:27:46Z","updated_at":"2014-02-04T18:50:53Z","category":"Drugstore","cartodb_id":249,"description":null,"website":null}},{"type":"Feature","geometry":{"type":"Point","coordinates":[-90.300125,38.600124]},"properties":{"store_name":"Hucks Food and Fuel 252","longitude":"-90.300125","latitude":"38.600124","address":"3443 Watson Rd","city":"Saint Louis","state":"MO","zip5":"63139","county":"ST LOUIS CITY","created_at":"2014-01-22T19:27:46Z","updated_at":"2014-02-05T17:56:19Z","category":"Convenience/Corner/Liquor Store","cartodb_id":251,"description":"(314) 645-6723, http://www.martinandbayley.com/","website":null}},{"type":"Feature","geometry":{"type":"Point","coordinates":[-90.295563,38.563423]},"properties":{"store_name":"Walgreens 3906","longitude":"-90.295563","latitude":"38.563423","address":"7339 Gravois Ave","city":"Saint Louis","state":"MO","zip5":"63116","county":"ST LOUIS CITY","created_at":"2014-01-22T19:27:46Z","updated_at":"2014-02-04T18:57:54Z","category":"Drugstore","cartodb_id":560,"description":null,"website":null}},{"type":"Feature","geometry":{"type":"Point","coordinates":[-90.288734,38.610126]},"properties":{"store_name":"Gas Mart 17","longitude":"-90.288734","latitude":"38.610126","address":"2724 Watson Rd","city":"Saint Louis","state":"MO","zip5":"63139","county":"ST LOUIS CITY","created_at":"2014-01-22T19:27:46Z","updated_at":"2014-02-05T18:55:32Z","category":"Gas Station Food Mart","cartodb_id":410,"description":null,"website":null}},{"type":"Feature","geometry":{"type":"Point","coordinates":[-90.272781,38.592079]},"properties":{"store_name":"Walgreens 6166","longitude":"-90.272781","latitude":"38.592079","address":"3822 S Kingshighway Blvd","city":"Saint Louis","state":"MO","zip5":"63109","county":"ST LOUIS CITY","created_at":"2014-01-22T19:27:46Z","updated_at":"2014-02-04T18:58:08Z","category":"Drugstore","cartodb_id":693,"description":null,"website":null}},{"type":"Feature","geometry":{"type":"Point","coordinates":[-90.193954,38.641548]},"properties":{"store_name":"Crown Mart 6","longitude":"-90.193954","latitude":"38.641548","address":"1513 N 13th St","city":"Saint Louis","state":"MO","zip5":"63106","county":"ST LOUIS CITY","created_at":"2014-01-22T19:27:46Z","updated_at":"2014-02-05T17:47:22Z","category":"Gas Station Food Mart","cartodb_id":215,"description":null,"website":null}},{"type":"Feature","geometry":{"type":"Point","coordinates":[-90.285194,38.569969]},"properties":{"store_name":"QuikTrip 668","longitude":"-90.285194","latitude":"38.569969","address":"6900 Gravois Ave","city":"Saint Louis","state":"MO","zip5":"63116","county":"ST LOUIS CITY","created_at":"2014-01-22T19:27:46Z","updated_at":"2014-02-04T23:37:26Z","category":"Gas Station Food Mart","cartodb_id":6,"description":null,"website":null}},{"type":"Feature","geometry":{"type":"Point","coordinates":[-90.206856,38.677296]},"properties":{"store_name":"SAVEWAY","longitude":"-90.206856","latitude":"38.677296","address":"5110 N Broadway","city":"Saint Louis","state":"MO","zip5":"63147","county":"ST LOUIS CITY","created_at":"2014-01-22T19:27:46Z","updated_at":"2014-02-05T00:01:12Z","category":"Supermarket","cartodb_id":17,"description":null,"website":null}},{"type":"Feature","geometry":{"type":"Point","coordinates":[-90.220116,38.674824]},"properties":{"store_name":"West Florissant Amoco","longitude":"-90.220116","latitude":"38.674824","address":"4126 W Florissant Ave","city":"Saint Louis","state":"MO","zip5":"63115","county":"ST LOUIS CITY","created_at":"2014-01-22T19:27:46Z","updated_at":"2014-02-05T00:30:56Z","category":"Gas Station Food Mart","cartodb_id":37,"description":null,"website":null}},{"type":"Feature","geometry":{"type":"Point","coordinates":[-90.226875,38.717815]},"properties":{"store_name":"Christys Fuel LLC","longitude":"-90.226875","latitude":"38.717815","address":"8430 Hall St","city":"Saint Louis","state":"MO","zip5":"63147","county":"ST LOUIS CITY","created_at":"2014-01-22T19:27:46Z","updated_at":"2014-02-05T01:32:05Z","category":"Gas Station Food Mart","cartodb_id":48,"description":"(314) 869-5169","website":null}},{"type":"Feature","geometry":{"type":"Point","coordinates":[-90.259796,38.699875]},"properties":{"store_name":"Mc Neals Superette Inc","longitude":"-90.259796","latitude":"38.699875","address":"5900 Lillian Ave","city":"Saint Louis","state":"MO","zip5":"63136","county":"ST LOUIS","created_at":"2014-01-22T19:27:46Z","updated_at":"2014-02-05T03:16:54Z","category":"Convenience/Corner/Liquor Store","cartodb_id":126,"description":null,"website":null}},{"type":"Feature","geometry":{"type":"Point","coordinates":[-90.263145,38.701927]},"properties":{"store_name":"Pulse Petroleum Inc","longitude":"-90.263145","latitude":"38.701927","address":"5003 Goodfellow Blvd","city":"Saint Louis","state":"MO","zip5":"63136","county":"ST LOUIS","created_at":"2014-01-22T19:27:46Z","updated_at":"2014-02-05T15:43:58Z","category":"Gas Station Food Mart","cartodb_id":590,"description":null,"website":null}},{"type":"Feature","geometry":{"type":"Point","coordinates":[-90.221886,38.610039]},"properties":{"store_name":"Sunshine Food Mart","longitude":"-90.221886","latitude":"38.610039","address":"2200 S Jefferson Ave","city":"Saint Louis","state":"MO","zip5":"63104","county":"ST LOUIS CITY","created_at":"2014-01-22T19:27:46Z","updated_at":"2014-02-05T01:35:41Z","category":"Convenience/Corner/Liquor Store","cartodb_id":53,"description":"(314) 773-4867","website":null}},{"type":"Feature","geometry":{"type":"Point","coordinates":[-90.220001,38.674889]},"properties":{"store_name":"Adelaide Food Market Inc","longitude":"-90.220001","latitude":"38.674889","address":"4129 W Florissant Ave","city":"Saint Louis","state":"MO","zip5":"63115","county":"ST LOUIS CITY","created_at":"2014-01-22T19:27:46Z","updated_at":"2014-02-05T01:43:42Z","category":"Convenience/Corner/Liquor Store","cartodb_id":8,"description":null,"website":null}},{"type":"Feature","geometry":{"type":"Point","coordinates":[-90.287781,38.623817]},"properties":{"store_name":"Circle K 1654","longitude":"-90.287781","latitude":"38.623817","address":"1514 Hampton Ave","city":"Saint Louis","state":"MO","zip5":"63139","county":"ST LOUIS CITY","created_at":"2014-01-22T19:27:46Z","updated_at":"2014-02-05T03:38:18Z","category":"Gas Station Food Mart","cartodb_id":167,"description":null,"website":null}},{"type":"Feature","geometry":{"type":"Point","coordinates":[-90.255707,38.589596]},"properties":{"store_name":"QuikTrip 636","longitude":"-90.255707","latitude":"38.589596","address":"4101 Gravois Ave","city":"Saint Louis","state":"MO","zip5":"63116","county":"ST LOUIS CITY","created_at":"2014-01-22T19:27:46Z","updated_at":"2014-02-05T17:02:14Z","category":"Gas Station Food Mart","cartodb_id":699,"description":null,"website":null}},{"type":"Feature","geometry":{"type":"Point","coordinates":[-90.217216,38.68399]},"properties":{"store_name":"Broadway Mobil","longitude":"-90.217216","latitude":"38.68399","address":"6020 N Broadway","city":"Saint Louis","state":"MO","zip5":"63147","county":"ST LOUIS CITY","created_at":"2014-01-22T19:27:46Z","updated_at":"2014-02-05T23:02:51Z","category":"Gas Station Food Mart","cartodb_id":464,"description":null,"website":null}},{"type":"Feature","geometry":{"type":"Point","coordinates":[-90.250679,38.591579]},"properties":{"store_name":"Deals 3356","longitude":"-90.250679","latitude":"38.591579","address":"3853 Gravois Ave","city":"Saint Louis","state":"MO","zip5":"63116","county":"ST LOUIS CITY","created_at":"2014-01-22T19:27:46Z","updated_at":"2014-02-05T17:04:16Z","category":"Discount Store","cartodb_id":52,"description":null,"website":null}},{"type":"Feature","geometry":{"type":"Point","coordinates":[-90.243065,38.598106]},"properties":{"store_name":"Gas Mart 3","longitude":"-90.243065","latitude":"38.598106","address":"3237 S Grand Blvd","city":"Saint Louis","state":"MO","zip5":"63118","county":"ST LOUIS CITY","created_at":"2014-01-22T19:27:46Z","updated_at":"2014-02-05T18:55:25Z","category":"Gas Station Food Mart","cartodb_id":408,"description":null,"website":null}},{"type":"Feature","geometry":{"type":"Point","coordinates":[-90.221031,38.615322]},"properties":{"store_name":"Midwest Petroleum/Phillips 66 44","longitude":"-90.221031","latitude":"38.615322","address":"1655 S Jefferson Ave","city":"Saint Louis","state":"MO","zip5":"63104","county":"ST LOUIS CITY","created_at":"2014-01-22T19:27:46Z","updated_at":"2014-02-05T17:46:01Z","category":"Gas Station Food Mart","cartodb_id":202,"description":null,"website":null}},{"type":"Feature","geometry":{"type":"Point","coordinates":[-90.242699,38.599796]},"properties":{"store_name":"Grand Bp Gas Mart 669","longitude":"-90.242699","latitude":"38.599796","address":"3182 S Grand Blvd","city":"Saint Louis","state":"MO","zip5":"63118","county":"ST LOUIS CITY","created_at":"2014-01-22T19:27:46Z","updated_at":"2014-02-05T23:09:07Z","category":"Gas Station Food Mart","cartodb_id":488,"description":null,"website":null}},{"type":"Feature","geometry":{"type":"Point","coordinates":[-90.233391,38.605225]},"properties":{"store_name":"Family Convenience Mart Inc","longitude":"-90.233391","latitude":"38.605225","address":"3126 Magnolia Ave","city":"Saint Louis","state":"MO","zip5":"63118","county":"ST LOUIS CITY","created_at":"2014-01-22T19:27:46Z","updated_at":"2014-02-05T01:46:51Z","category":"Convenience/Corner/Liquor Store","cartodb_id":10,"description":null,"website":null}},{"type":"Feature","geometry":{"type":"Point","coordinates":[-90.285347,38.64875]},"properties":{"store_name":"Xpress Mart","longitude":"-90.285347","latitude":"38.64875","address":"305 De Baliviere Ave","city":"Saint Louis","state":"MO","zip5":"63112","county":"ST LOUIS CITY","created_at":"2014-01-22T19:27:46Z","updated_at":"2014-02-05T01:50:02Z","category":"Convenience/Corner/Liquor Store","cartodb_id":13,"description":null,"website":null}},{"type":"Feature","geometry":{"type":"Point","coordinates":[-90.239296,38.722717]},"properties":{"store_name":"C & K Inc","longitude":"-90.239296","latitude":"38.722717","address":"1199 Riverview Blvd","city":"Saint Louis","state":"MO","zip5":"63147","county":"ST LOUIS CITY","created_at":"2014-01-22T19:27:46Z","updated_at":"2014-02-05T03:12:37Z","category":"Gas Station Food Mart","cartodb_id":121,"description":null,"website":null}},{"type":"Feature","geometry":{"type":"Point","coordinates":[-90.195679,38.637558]},"properties":{"store_name":"Kram Fish","longitude":"-90.195679","latitude":"38.637558","address":"1307 Biddle St","city":"Saint Louis","state":"MO","zip5":"63106","county":"ST LOUIS CITY","created_at":"2014-01-22T19:27:46Z","updated_at":"2014-02-05T01:59:00Z","category":"Specialty Store","cartodb_id":16,"description":"Fish Market","website":null}},{"type":"Feature","geometry":{"type":"Point","coordinates":[-90.200085,38.610501]},"properties":{"store_name":"Harr Family Farms","longitude":"-90.20015","latitude":"38.610516","address":"730 Carroll St","city":"Saint Louis","state":"MO","zip5":"63104","county":"ST LOUIS CITY","created_at":"2014-01-22T19:27:46Z","updated_at":"2014-07-29T16:40:16Z","category":"Farmers Market/Farm","cartodb_id":530,"description":"314-622-4180, SoulardMarket@aol.com, http://www.soulardmarket.com/","website":null}},{"type":"Feature","geometry":{"type":"Point","coordinates":[-90.213219,38.666168]},"properties":{"store_name":"Ninety Nine Plus 1","longitude":"-90.213219","latitude":"38.666168","address":"4145 N Grand Blvd","city":"Saint Louis","state":"MO","zip5":"63107","county":"ST LOUIS CITY","created_at":"2014-01-22T19:27:46Z","updated_at":"2014-02-05T02:02:35Z","category":"Convenience/Corner/Liquor Store","cartodb_id":19,"description":null,"website":null}},{"type":"Feature","geometry":{"type":"Point","coordinates":[-90.20002,38.650784]},"properties":{"store_name":"Mally Supermarket","longitude":"-90.20002","latitude":"38.650784","address":"2800 N Florissant Ave","city":"Saint Louis","state":"MO","zip5":"63107","county":"ST LOUIS CITY","created_at":"2014-01-22T19:27:46Z","updated_at":"2014-02-05T18:42:51Z","category":"Convenience/Corner/Liquor Store","cartodb_id":305,"description":null,"website":null}},{"type":"Feature","geometry":{"type":"Point","coordinates":[-90.276543,38.584236]},"properties":{"store_name":"Ms Convenience Store 711","longitude":"-90.276543","latitude":"38.584236","address":"4948 Christy Blvd","city":"Saint Louis","state":"MO","zip5":"63116","county":"ST LOUIS CITY","created_at":"2014-01-22T19:27:46Z","updated_at":"2014-02-05T03:53:36Z","category":"Convenience/Corner/Liquor Store","cartodb_id":187,"description":null,"website":null}},{"type":"Feature","geometry":{"type":"Point","coordinates":[-90.263512,38.651897]},"properties":{"store_name":"JMK Inc","longitude":"-90.263512","latitude":"38.651897","address":"707 N Kingshighway Blvd","city":"Saint Louis","state":"MO","zip5":"63108","county":"ST LOUIS CITY","created_at":"2014-01-22T19:27:46Z","updated_at":"2014-02-05T03:54:03Z","category":"Gas Station Food Mart","cartodb_id":191,"description":null,"website":null}},{"type":"Feature","geometry":{"type":"Point","coordinates":[-90.249191,38.559387]},"properties":{"store_name":"Your Corner Market","longitude":"-90.249191","latitude":"38.559387","address":"6200 Michigan Ave","city":"Saint Louis","state":"MO","zip5":"63111","county":"ST LOUIS CITY","created_at":"2014-01-22T19:27:46Z","updated_at":"2014-02-05T02:09:14Z","category":"Superette/Small Grocery","cartodb_id":32,"description":"314-352-1183, Deli","website":null}},{"type":"Feature","geometry":{"type":"Point","coordinates":[-90.222916,38.652618]},"properties":{"store_name":"Crown Mart 3","longitude":"-90.222916","latitude":"38.652618","address":"2501 N Grand Blvd","city":"Saint Louis","state":"MO","zip5":"63106","county":"ST LOUIS CITY","created_at":"2014-01-22T19:27:46Z","updated_at":"2014-02-05T02:15:20Z","category":"Convenience/Corner/Liquor Store","cartodb_id":55,"description":null,"website":null}},{"type":"Feature","geometry":{"type":"Point","coordinates":[-90.222672,38.638844]},"properties":{"store_name":"One Stop Mini Mart Package Liquor","longitude":"-90.222672","latitude":"38.638844","address":"3106-10 Delmar","city":"St Louis","state":"MO","zip5":"63103","county":"ST LOUIS CITY","created_at":"2014-01-22T19:27:46Z","updated_at":"2014-02-05T02:17:11Z","category":"Convenience/Corner/Liquor Store","cartodb_id":56,"description":null,"website":null}},{"type":"Feature","geometry":{"type":"Point","coordinates":[-90.22776,38.582085]},"properties":{"store_name":"Dons Meat Market","longitude":"-90.22776","latitude":"38.582085","address":"4012 S Broadway","city":"Saint Louis","state":"MO","zip5":"63118","county":"ST LOUIS CITY","created_at":"2014-01-22T19:27:46Z","updated_at":"2014-02-05T14:29:16Z","category":"Specialty Store","cartodb_id":554,"description":"Sells quality USDA Choice meats. Serving the greater St Louis area for over 20 years. Specializes in fresh meat orders, never frozen. Sells fish, chicken, beef, pork, turkey, and deli meats. Also sells some grocery and produce items such as rubs, BBQ sauce, bread, various cheeses, potatoes, and peppers. http://www.donsmeatmarket.com/\n314-351-9938","website":null}},{"type":"Feature","geometry":{"type":"Point","coordinates":[-90.244125,38.700661]},"properties":{"store_name":"Northway Market","longitude":"-90.244125","latitude":"38.700661","address":"5590 W Florissant Ave","city":"Saint Louis","state":"MO","zip5":"63120","county":"ST LOUIS CITY","created_at":"2014-01-22T19:27:46Z","updated_at":"2014-02-05T14:41:00Z","category":"Convenience/Corner/Liquor Store","cartodb_id":652,"description":"(314) 382-1717","website":null}},{"type":"Feature","geometry":{"type":"Point","coordinates":[-90.253853,38.56929]},"properties":{"store_name":"Aryana Market LLC","longitude":"-90.253853","latitude":"38.56929","address":"5545 S Grand Blvd","city":"Saint Louis","state":"MO","zip5":"63111","county":"ST LOUIS CITY","created_at":"2014-01-22T19:27:46Z","updated_at":"2014-02-05T16:03:57Z","category":"Superette/Small Grocery","cartodb_id":501,"description":"(314) 352-4999. Turkish Market. Carries a variety of fresh Afghan/Iranian bread, Halal meat, Afghan sweets and dried fruits/nuts. ","website":null}},{"type":"Feature","geometry":{"type":"Point","coordinates":[-90.286697,38.569035]},"properties":{"store_name":"A & S Mesnica Butcher Shop","longitude":"-90.286697","latitude":"38.569035","address":"4905 Blow St","city":"Saint Louis","state":"MO","zip5":"63109","county":"ST LOUIS CITY","created_at":"2014-01-22T19:27:46Z","updated_at":"2014-02-05T02:26:54Z","category":"Specialty Store","cartodb_id":62,"description":"(314) 351-0068, Meat Market","website":null}},{"type":"Feature","geometry":{"type":"Point","coordinates":[-90.245537,38.566521]},"properties":{"store_name":"Family Dollar Store 4878","longitude":"-90.245537","latitude":"38.566521","address":"5324 Virginia Ave","city":"Saint Louis","state":"MO","zip5":"63111","county":"ST LOUIS CITY","created_at":"2014-01-22T19:27:46Z","updated_at":"2014-02-05T02:54:24Z","category":"Discount Store","cartodb_id":98,"description":null,"website":null}},{"type":"Feature","geometry":{"type":"Point","coordinates":[-90.211395,38.608704]},"properties":{"store_name":"MIDWEST PETROLEUM/MPC #63 63","longitude":"-90.211395","latitude":"38.608704","address":"1314 Gravois Ave","city":"Saint Louis","state":"MO","zip5":"63104","county":"ST LOUIS CITY","created_at":"2014-01-22T19:27:46Z","updated_at":"2014-02-05T17:46:21Z","category":"Gas Station Food Mart","cartodb_id":212,"description":null,"website":null}},{"type":"Feature","geometry":{"type":"Point","coordinates":[-90.232574,38.675003]},"properties":{"store_name":"Sals Beauty Supply & More","longitude":"-90.232574","latitude":"38.675003","address":"4162 N Newstead Ave","city":"Saint Louis","state":"MO","zip5":"63115","county":"ST LOUIS CITY","created_at":"2014-01-22T19:27:46Z","updated_at":"2014-02-05T17:58:13Z","category":"Convenience/Corner/Liquor Store","cartodb_id":261,"description":null,"website":null}},{"type":"Feature","geometry":{"type":"Point","coordinates":[-90.197975,38.661667]},"properties":{"store_name":"Safi Amoco III","longitude":"-90.197975","latitude":"38.661667","address":"1110 Salisbury St","city":"Saint Louis","state":"MO","zip5":"63107","county":"ST LOUIS CITY","created_at":"2014-01-22T19:27:46Z","updated_at":"2014-02-05T18:07:45Z","category":"Gas Station Food Mart","cartodb_id":265,"description":null,"website":null}},{"type":"Feature","geometry":{"type":"Point","coordinates":[-90.267067,38.582092]},"properties":{"store_name":"Alhuda International Market","longitude":"-90.267067","latitude":"38.582092","address":"4743 Morganford Rd","city":"Saint Louis","state":"MO","zip5":"63116","county":"ST LOUIS CITY","created_at":"2014-01-22T19:27:46Z","updated_at":"2014-02-05T18:54:54Z","category":"Convenience/Corner/Liquor Store","cartodb_id":343,"description":null,"website":null}},{"type":"Feature","geometry":{"type":"Point","coordinates":[-90.254745,38.640469]},"properties":{"store_name":"Shapiros Market & Deli","longitude":"-90.254745","latitude":"38.640469","address":"111 N Newstead Ave","city":"Saint Louis","state":"MO","zip5":"63108","county":"ST LOUIS CITY","created_at":"2014-01-22T19:27:46Z","updated_at":"2014-02-05T19:17:01Z","category":"Convenience/Corner/Liquor Store","cartodb_id":363,"description":"(314) 531-5704","website":null}},{"type":"Feature","geometry":{"type":"Point","coordinates":[-90.226517,38.593395]},"properties":{"store_name":"Cherokee Street International Farmers Market","longitude":"-90.226517","latitude":"38.593395","address":"2622 Cherokee St","city":"Saint Louis","state":"MO","zip5":"63118","county":"ST LOUIS CITY","created_at":"2014-01-22T19:27:46Z","updated_at":"2014-02-05T19:18:53Z","category":"Farmers Market/Farm","cartodb_id":364,"description":"Every Friday 4-7pm, May-October. http://cherokeemarket.org/","website":null}},{"type":"Feature","geometry":{"type":"Point","coordinates":[-90.264992,38.582939]},"properties":{"store_name":"Al-Mustafa Supermarket Llc","longitude":"-90.264992","latitude":"38.582939","address":"4656 Gravois Ave","city":"Saint Louis","state":"MO","zip5":"63116","county":"ST LOUIS CITY","created_at":"2014-01-22T19:27:46Z","updated_at":"2014-02-05T19:20:33Z","category":"Convenience/Corner/Liquor Store","cartodb_id":367,"description":" (314) 481-1110 â€Ž ","website":null}},{"type":"Feature","geometry":{"type":"Point","coordinates":[-90.244164,38.656086]},"properties":{"store_name":"Family Dollar Store 7091","longitude":"-90.244164","latitude":"38.656086","address":"4344 Martin Luther King Blvd.","city":"St Louis","state":"MO","zip5":"63115","county":"ST LOUIS CITY","created_at":"2014-01-22T19:27:46Z","updated_at":"2014-02-05T22:24:31Z","category":"Discount Store","cartodb_id":99,"description":null,"website":null}},{"type":"Feature","geometry":{"type":"Point","coordinates":[-90.232262,38.616154]},"properties":{"store_name":"Ranells Market And Cafe","longitude":"-90.232262","latitude":"38.616154","address":"3152 Lafayette Ave","city":"Saint Louis","state":"MO","zip5":"63104","county":"ST LOUIS CITY","created_at":"2014-01-22T19:27:46Z","updated_at":"2014-02-05T19:23:10Z","category":"Superette/Small Grocery","cartodb_id":373,"description":"Grocery and Deli","website":null}},{"type":"Feature","geometry":{"type":"Point","coordinates":[-90.195503,38.631504]},"properties":{"store_name":"Copia Express Market 1","longitude":"-90.195503","latitude":"38.631504","address":"1110 Washington Ave","city":"Saint Louis","state":"MO","zip5":"63101","county":"ST LOUIS CITY","created_at":"2014-01-22T19:27:46Z","updated_at":"2014-02-05T19:30:08Z","category":"Convenience/Corner/Liquor Store","cartodb_id":397,"description":null,"website":null}},{"type":"Feature","geometry":{"type":"Point","coordinates":[-90.257561,38.672478]},"properties":{"store_name":"G & S Market","longitude":"-90.257561","latitude":"38.672478","address":"5101 Saint Louis Ave","city":"Saint Louis","state":"MO","zip5":"63115","county":"ST LOUIS CITY","created_at":"2014-01-22T19:27:46Z","updated_at":"2014-02-05T22:38:10Z","category":"Convenience/Corner/Liquor Store","cartodb_id":547,"description":"(314) 361-8413","website":null}},{"type":"Feature","geometry":{"type":"Point","coordinates":[-90.265114,38.675743]},"properties":{"store_name":"Neighborhood Mini Mart","longitude":"-90.265114","latitude":"38.675743","address":"5406 Saint Louis Ave","city":"Saint Louis","state":"MO","zip5":"63120","county":"ST LOUIS CITY","created_at":"2014-01-22T19:27:46Z","updated_at":"2014-02-05T19:31:58Z","category":"Convenience/Corner/Liquor Store","cartodb_id":421,"description":"C & T Mini Mart","website":null}},{"type":"Feature","geometry":{"type":"Point","coordinates":[-90.21656,38.661362]},"properties":{"store_name":"Fairgrounds Market","longitude":"-90.21656","latitude":"38.661362","address":"3710 N Grand Blvd","city":"Saint Louis","state":"MO","zip5":"63107","county":"ST LOUIS CITY","created_at":"2014-01-22T19:27:46Z","updated_at":"2014-02-05T22:56:34Z","category":"Gas Station Food Mart","cartodb_id":686,"description":null,"website":null}},{"type":"Feature","geometry":{"type":"Point","coordinates":[-90.226463,38.658333]},"properties":{"store_name":"Jordan Valley Market","longitude":"-90.226463","latitude":"38.658333","address":"2918 N Vandeventer Ave","city":"Saint Louis","state":"MO","zip5":"63107","county":"ST LOUIS CITY","created_at":"2014-01-22T19:27:46Z","updated_at":"2014-02-05T22:57:13Z","category":"Convenience/Corner/Liquor Store","cartodb_id":494,"description":"(314) 535-7928","website":null}},{"type":"Feature","geometry":{"type":"Point","coordinates":[-90.231888,38.65934]},"properties":{"store_name":"Regal Market","longitude":"-90.231888","latitude":"38.65934","address":"2800 N Sarah St","city":"Saint Louis","state":"MO","zip5":"63115","county":"ST LOUIS CITY","created_at":"2014-01-22T19:27:46Z","updated_at":"2014-02-05T22:57:55Z","category":"Convenience/Corner/Liquor Store","cartodb_id":697,"description":null,"website":null}},{"type":"Feature","geometry":{"type":"Point","coordinates":[-90.200183,38.610531]},"properties":{"store_name":"Wisconsin Gold","longitude":"-90.20015","latitude":"38.610516","address":"730 Carroll St","city":"Saint Louis","state":"MO","zip5":"63104","county":"ST LOUIS CITY","created_at":"2014-01-22T19:27:46Z","updated_at":"2014-07-29T16:39:32Z","category":"Farmers Market/Farm","cartodb_id":321,"description":"314-622-4180, SoulardMarket@aol.com, http://www.soulardmarket.com/","website":null}},{"type":"Feature","geometry":{"type":"Point","coordinates":[-90.205284,38.603081]},"properties":{"store_name":"Food Outlet LLC","longitude":"-90.205284","latitude":"38.603081","address":"2330 S 7th St","city":"Saint Louis","state":"MO","zip5":"63104","county":"ST LOUIS CITY","created_at":"2014-01-22T19:27:46Z","updated_at":"2014-02-05T19:36:22Z","category":"Specialty Store","cartodb_id":423,"description":"Food Service Center, Inc. Wholesale Foods. http://www.stlfoodoutlet.com/","website":null}},{"type":"Feature","geometry":{"type":"Point","coordinates":[-90.263718,38.651543]},"properties":{"store_name":"A1 Quick Shop","longitude":"-90.263718","latitude":"38.651543","address":"5000 Delmar Blvd","city":"Saint Louis","state":"MO","zip5":"63108","county":"ST LOUIS CITY","created_at":"2014-01-22T19:27:46Z","updated_at":"2014-02-05T19:42:16Z","category":"Gas Station Food Mart","cartodb_id":424,"description":null,"website":null}},{"type":"Feature","geometry":{"type":"Point","coordinates":[-90.241325,38.607193]},"properties":{"store_name":"Family Dollar Store 10338","longitude":"-90.241325","latitude":"38.607193","address":"2700 S Grand Blvd","city":"Saint Louis","state":"MO","zip5":"63118","county":"ST LOUIS CITY","created_at":"2014-01-22T19:27:46Z","updated_at":"2014-02-05T20:42:04Z","category":"Discount Store","cartodb_id":473,"description":null,"website":null}},{"type":"Feature","geometry":{"type":"Point","coordinates":[-90.199539,38.649891]},"properties":{"store_name":"Quality Market","longitude":"-90.199539","latitude":"38.649891","address":"2708 N Florissant Ave","city":"Saint Louis","state":"MO","zip5":"63106","county":"ST LOUIS CITY","created_at":"2014-01-22T19:27:46Z","updated_at":"2014-02-05T23:01:51Z","category":"Convenience/Corner/Liquor Store","cartodb_id":549,"description":"(314) 421-4545","website":null}},{"type":"Feature","geometry":{"type":"Point","coordinates":[-90.235405,38.607243]},"properties":{"store_name":"Barnetts Market","longitude":"-90.235405","latitude":"38.607243","address":"2600 Virginia Ave","city":"Saint Louis","state":"MO","zip5":"63118","county":"ST LOUIS CITY","created_at":"2014-01-22T19:27:46Z","updated_at":"2014-02-05T20:46:42Z","category":"Convenience/Corner/Liquor Store","cartodb_id":737,"description":"(314) 776-4350, Has a Deli","website":null}},{"type":"Feature","geometry":{"type":"Point","coordinates":[-90.229675,38.607533]},"properties":{"store_name":"Southside General Store","longitude":"-90.229675","latitude":"38.607533","address":"2900 Victor St","city":"Saint Louis","state":"MO","zip5":"63104","county":"ST LOUIS CITY","created_at":"2014-01-22T19:27:46Z","updated_at":"2014-02-05T20:47:31Z","category":"Convenience/Corner/Liquor Store","cartodb_id":709,"description":null,"website":null}},{"type":"Feature","geometry":{"type":"Point","coordinates":[-90.23156,38.594002]},"properties":{"store_name":"Cherokee Food Market","longitude":"-90.23156","latitude":"38.594002","address":"2850 Cherokee St","city":"Saint Louis","state":"MO","zip5":"63118","county":"ST LOUIS CITY","created_at":"2014-01-22T19:27:46Z","updated_at":"2014-02-05T20:49:30Z","category":"Convenience/Corner/Liquor Store","cartodb_id":559,"description":null,"website":null}},{"type":"Feature","geometry":{"type":"Point","coordinates":[-90.254585,38.590069]},"properties":{"store_name":"City Grocery & Bakery LLC","longitude":"-90.254585","latitude":"38.590069","address":"4043 Gravois Ave","city":"Saint Louis","state":"MO","zip5":"63116","county":"ST LOUIS CITY","created_at":"2014-01-22T19:27:46Z","updated_at":"2014-02-05T20:54:45Z","category":"Convenience/Corner/Liquor Store","cartodb_id":484,"description":"Gravois Discount Smokes","website":null}},{"type":"Feature","geometry":{"type":"Point","coordinates":[-90.237755,38.597153]},"properties":{"store_name":"Taj Market","longitude":"-90.237755","latitude":"38.597153","address":"3243 Gravois Ave","city":"Saint Louis","state":"MO","zip5":"63118","county":"ST LOUIS CITY","created_at":"2014-01-22T19:27:46Z","updated_at":"2014-02-05T20:56:35Z","category":"Convenience/Corner/Liquor Store","cartodb_id":601,"description":null,"website":null}},{"type":"Feature","geometry":{"type":"Point","coordinates":[-90.230057,38.593811]},"properties":{"store_name":"Carniceria Latino Americana","longitude":"-90.230057","latitude":"38.593811","address":"2800 Cherokee St","city":"Saint Louis","state":"MO","zip5":"63118","county":"ST LOUIS CITY","created_at":"2014-01-22T19:27:46Z","updated_at":"2014-02-05T21:21:03Z","category":"Convenience/Corner/Liquor Store","cartodb_id":710,"description":"Mexico Vive Aqui!","website":null}},{"type":"Feature","geometry":{"type":"Point","coordinates":[-90.228745,38.593655]},"properties":{"store_name":"Waberi Grocery","longitude":"-90.228745","latitude":"38.593655","address":"2724 Cherokee St","city":"Saint Louis","state":"MO","zip5":"63118","county":"ST LOUIS CITY","created_at":"2014-01-22T19:27:46Z","updated_at":"2014-02-05T21:22:21Z","category":"Convenience/Corner/Liquor Store","cartodb_id":658,"description":"(314) 762-9506. http://waberistore.com/Grocery/grocery.html ","website":null}},{"type":"Feature","geometry":{"type":"Point","coordinates":[-90.214294,38.664562]},"properties":{"store_name":"Dollar General 14612","longitude":"-90.214294","latitude":"38.664562","address":"4038 N Grand Blvd","city":"Saint Louis","state":"MO","zip5":"63107","county":"ST LOUIS CITY","created_at":"2014-01-22T19:27:46Z","updated_at":"2014-02-05T22:58:13Z","category":"Discount Store","cartodb_id":513,"description":null,"website":null}},{"type":"Feature","geometry":{"type":"Point","coordinates":[-90.206696,38.667675]},"properties":{"store_name":"M & V Market","longitude":"-90.206696","latitude":"38.667675","address":"4300 N 20th St","city":"Saint Louis","state":"MO","zip5":"63107","county":"ST LOUIS CITY","created_at":"2014-01-22T19:27:46Z","updated_at":"2014-02-05T23:02:30Z","category":"Convenience/Corner/Liquor Store","cartodb_id":582,"description":null,"website":null}},{"type":"Feature","geometry":{"type":"Point","coordinates":[-90.265495,38.698551]},"properties":{"store_name":"Hot Stop Market","longitude":"-90.265495","latitude":"38.698551","address":"4739 Goodfellow Blvd","city":"Saint Louis","state":"MO","zip5":"63120","county":"ST LOUIS CITY","created_at":"2014-01-22T19:27:46Z","updated_at":"2014-02-05T23:03:32Z","category":"Convenience/Corner/Liquor Store","cartodb_id":450,"description":null,"website":null}},{"type":"Feature","geometry":{"type":"Point","coordinates":[-90.245323,38.615696]},"properties":{"store_name":"Shaw 39th Street Supermarket","longitude":"-90.245323","latitude":"38.615696","address":"3901 Shaw Blvd","city":"Saint Louis","state":"MO","zip5":"63110","county":"ST LOUIS CITY","created_at":"2014-01-22T19:27:46Z","updated_at":"2014-02-05T23:04:37Z","category":"Convenience/Corner/Liquor Store","cartodb_id":596,"description":"Salama Supermarket. (314) 664-2069. No liquor.","website":null}},{"type":"Feature","geometry":{"type":"Point","coordinates":[-90.261444,38.602287]},"properties":{"store_name":"7-Eleven Store 19889F","longitude":"-90.261444","latitude":"38.602287","address":"3160 Morganford Rd","city":"Saint Louis","state":"MO","zip5":"63116","county":"ST LOUIS CITY","created_at":"2014-01-22T19:27:46Z","updated_at":"2014-02-05T23:04:52Z","category":"Convenience/Corner/Liquor Store","cartodb_id":752,"description":null,"website":null}},{"type":"Feature","geometry":{"type":"Point","coordinates":[-90.229225,38.593822]},"properties":{"store_name":"El Torito Grocery","longitude":"-90.229225","latitude":"38.593822","address":"2753 Cherokee St","city":"Saint Louis","state":"MO","zip5":"63118","county":"ST LOUIS CITY","created_at":"2014-01-22T19:27:46Z","updated_at":"2014-04-03T19:06:09Z","category":"Healthy Corner Store Project","cartodb_id":589,"description":"Supermarcado El Torito. http://www.yelp.com/biz/el-torito-saint-louis","website":null}},{"type":"Feature","geometry":{"type":"Point","coordinates":[-90.225342,38.676907]},"properties":{"store_name":"New Carries Corner Market 1","longitude":"-90.225342","latitude":"38.676907","address":"4500 Athlone Ave","city":"Saint Louis","state":"MO","zip5":"63115","county":"ST LOUIS CITY","created_at":"2014-01-22T19:27:46Z","updated_at":"2014-04-03T19:12:59Z","category":"Healthy Corner Store Project","cartodb_id":491,"description":"(314) 381-5556, Year 3 Healthy Corner Store Project, Partner: YouthBuild (coming soon)","website":null}},{"type":"Feature","geometry":{"type":"Point","coordinates":[-90.24263,38.600296]},"properties":{"store_name":"Jay Asian","longitude":"-90.24263","latitude":"38.600296","address":"3172 S Grand Blvd","city":"Saint Louis","state":"MO","zip5":"63118","county":"ST LOUIS CITY","created_at":"2014-01-22T19:27:46Z","updated_at":"2014-02-05T23:05:23Z","category":"Superette/Small Grocery","cartodb_id":754,"description":"International Foods Store. (314) 772-9393","website":null}},{"type":"Feature","geometry":{"type":"Point","coordinates":[-90.204712,38.630421]},"properties":{"store_name":"7-Eleven Store 19501 F","longitude":"-90.204712","latitude":"38.630421","address":"201 N 17th St","city":"Saint Louis","state":"MO","zip5":"63103","county":"ST LOUIS CITY","created_at":"2014-01-22T19:27:46Z","updated_at":"2014-02-05T23:05:46Z","category":"Convenience/Corner/Liquor Store","cartodb_id":524,"description":null,"website":null}},{"type":"Feature","geometry":{"type":"Point","coordinates":[-90.229332,38.602287]},"properties":{"store_name":"QuikTrip 638","longitude":"-90.229332","latitude":"38.602287","address":"2851 Gravois Ave","city":"Saint Louis","state":"MO","zip5":"63118","county":"ST LOUIS CITY","created_at":"2014-01-22T19:27:46Z","updated_at":"2014-02-05T23:05:57Z","category":"Gas Station Food Mart","cartodb_id":704,"description":null,"website":null}},{"type":"Feature","geometry":{"type":"Point","coordinates":[-90.270439,38.578815]},"properties":{"store_name":"In N' Out Grocery & Tobacco","longitude":"-90.270439","latitude":"38.578815","address":"5423 Gravois Ave","city":"Saint Louis","state":"MO","zip5":"63116","county":"ST LOUIS CITY","created_at":"2014-01-22T19:27:46Z","updated_at":"2014-02-05T23:08:00Z","category":"Convenience/Corner/Liquor Store","cartodb_id":454,"description":null,"website":null}},{"type":"Feature","geometry":{"type":"Point","coordinates":[-90.25827,38.56414]},"properties":{"store_name":"Family Dollar Store 9382","longitude":"-90.25827","latitude":"38.56414","address":"6155 S Grand Blvd","city":"Saint Louis","state":"MO","zip5":"63111","county":"ST LOUIS CITY","created_at":"2014-01-22T19:27:46Z","updated_at":"2014-02-05T23:08:12Z","category":"Discount Store","cartodb_id":441,"description":null,"website":null}},{"type":"Feature","geometry":{"type":"Point","coordinates":[-90.307533,38.603935]},"properties":{"store_name":"Circle K 1675","longitude":"-90.307533","latitude":"38.603935","address":"3282 Jamieson Ave","city":"Saint Louis","state":"MO","zip5":"63139","county":"ST LOUIS CITY","created_at":"2014-01-22T19:27:46Z","updated_at":"2014-02-05T23:08:36Z","category":"Gas Station Food Mart","cartodb_id":457,"description":null,"website":null}},{"type":"Feature","geometry":{"type":"Point","coordinates":[-90.220726,38.616638]},"properties":{"store_name":"Family Dollar 10314","longitude":"-90.220726","latitude":"38.616638","address":"1549 S Jefferson Ave","city":"Saint Louis","state":"MO","zip5":"63104","county":"ST LOUIS CITY","created_at":"2014-01-22T19:27:46Z","updated_at":"2014-02-05T23:08:45Z","category":"Discount Store","cartodb_id":463,"description":null,"website":null}},{"type":"Feature","geometry":{"type":"Point","coordinates":[-90.222755,38.606026]},"properties":{"store_name":"Family Dollar 9315","longitude":"-90.222755","latitude":"38.606026","address":"2500 S Jefferson Ave","city":"Saint Louis","state":"MO","zip5":"63104","county":"ST LOUIS CITY","created_at":"2014-01-22T19:27:46Z","updated_at":"2014-02-05T23:08:54Z","category":"Discount Store","cartodb_id":461,"description":null,"website":null}},{"type":"Feature","geometry":{"type":"Point","coordinates":[-90.222206,38.605354]},"properties":{"store_name":"City 66","longitude":"-90.222206","latitude":"38.605354","address":"2327 Gravois Ave","city":"Saint Louis","state":"MO","zip5":"63104","county":"ST LOUIS CITY","created_at":"2014-01-22T19:27:46Z","updated_at":"2014-02-05T23:09:38Z","category":"Gas Station Food Mart","cartodb_id":486,"description":null,"website":null}},{"type":"Feature","geometry":{"type":"Point","coordinates":[-90.292336,38.665306]},"properties":{"store_name":"Universal Market","longitude":"-90.292336","latitude":"38.665306","address":"1136 Hodiamont Ave","city":"Saint Louis","state":"MO","zip5":"63112","county":"ST LOUIS CITY","created_at":"2014-01-22T19:27:46Z","updated_at":"2014-06-26T19:24:04Z","category":"Convenience/Corner/Liquor Store","cartodb_id":411,"description":null,"website":null}},{"type":"Feature","geometry":{"type":"Point","coordinates":[-90.200161,38.610519]},"properties":{"store_name":"Scott B Schweiger","longitude":"-90.20015","latitude":"38.610516","address":"730 Carroll St","city":"Saint Louis","state":"MO","zip5":"63104","county":"ST LOUIS CITY","created_at":"2014-01-22T19:27:46Z","updated_at":"2014-07-29T16:39:14Z","category":"Farmers Market/Farm","cartodb_id":553,"description":"314-622-4180, SoulardMarket@aol.com, http://www.soulardmarket.com/","website":null}},{"type":"Feature","geometry":{"type":"Point","coordinates":[-90.261116,38.604286]},"properties":{"store_name":"Local Harvest Grocery","longitude":"-90.261116","latitude":"38.604286","address":"3108 Morganford Rd","city":"Saint Louis","state":"MO","zip5":"63116","county":"ST LOUIS CITY","created_at":"2014-01-22T19:27:46Z","updated_at":"2014-02-28T19:30:05Z","category":"Superette/Small Grocery","cartodb_id":132,"description":"(314) 865-5260, St Louis City's Local and Organic Grocery Store. Pick up grass-fed beef, locally grown produce, local eggs, beer and wine and plenty of organic dry goods.","website":" http://localharvestgrocery.com/"}},{"type":"Feature","geometry":{"type":"Point","coordinates":[-90.251923,38.702282]},"properties":{"store_name":"REGAL MEAT MKT","longitude":"-90.251923","latitude":"38.702282","address":"5791 Thekla Ave","city":"Saint Louis","state":"MO","zip5":"63120","county":"ST LOUIS CITY","created_at":"2014-01-22T19:27:46Z","updated_at":"2014-04-03T19:11:30Z","category":"Healthy Corner Store Project","cartodb_id":600,"description":"(314) 382-8509, Year 1 Healthy Corner Store Project, Partner: Walbridge Elementary Community Education Full Service School","website":null}},{"type":"Feature","geometry":{"type":"Point","coordinates":[-90.225624,38.592796]},"properties":{"store_name":"SAVE A LOT 404","longitude":"-90.225624","latitude":"38.592796","address":"3427 S Jefferson Ave","city":"Saint Louis","state":"MO","zip5":"63118","county":"ST LOUIS CITY","created_at":"2014-01-22T19:27:46Z","updated_at":"2014-05-13T15:51:08Z","category":"Supermarket","cartodb_id":689,"description":null,"website":null}},{"type":"Feature","geometry":{"type":"Point","coordinates":[-90.211441,38.603706]},"properties":{"store_name":"Vincents 12th Street Market","longitude":"-90.211441","latitude":"38.603706","address":"2400 S 12th St","city":"Saint Louis","state":"MO","zip5":"63104","county":"ST LOUIS CITY","created_at":"2014-01-22T19:27:46Z","updated_at":"2014-02-28T17:41:58Z","category":"Superette/Small Grocery","cartodb_id":14,"description":"","website":"http://www.vincentsmarket.biz/"}},{"type":"Feature","geometry":{"type":"Point","coordinates":[-90.254768,38.650848]},"properties":{"store_name":"Our City Farm (Villarreal Family Farm, LLC)","longitude":"-90.254768","latitude":"38.650848","address":"4539 Delmar Blvd","city":"Saint Louis","state":"MO","zip5":"63108","county":"ST LOUIS CITY","created_at":"2014-01-22T19:27:46Z","updated_at":"2014-02-28T17:42:20Z","category":"Farmers Market/Farm","cartodb_id":517,"description":"Our City Farm is owned and operated by the Villarreal family in the heart of St. Louis. This urban farm produces Certified Naturally Grown pastured poultry, farm fresh eggs, and a variety of herbs and heirloom produce. Our City Farm is a repurposed, once-vancant lot in St. Louis City that is now a vibrant and thriving urban farm. Our City Farm produces hyper-local, fresh, heirloom and exotic produce to the community in the form of an extended CSA that runs for 6 months out of the year. Our City Farm uses simple, traditional farming techniques along with sustainable practices. Their goal is to increase their sustainability and they have designed their farm as such.","website":"http://www.ourcityfarm.com/"}},{"type":"Feature","geometry":{"type":"Point","coordinates":[-90.256377,38.626926]},"properties":{"store_name":"City Greens Produce","longitude":"-90.253899","latitude":"38.626423","address":"4260 Manchester Ave.","city":"Saint Louis","state":"MO","zip5":"63110","county":"ST LOUIS CITY","created_at":"2014-01-22T19:27:46Z","updated_at":"2014-05-12T20:09:59Z","category":"Superette/Small Grocery","cartodb_id":324,"description":"Grocery Co-op. Local, fresh produce. Formerly located at 1202 S Boyle Ave. http://www.citygreensproduce.blogspot.com/\nMidtown Catholic Charities Community Service. ","website":null}},{"type":"Feature","geometry":{"type":"Point","coordinates":[-90.294563,38.591881]},"properties":{"store_name":"Target Stores T- 1515","longitude":"-90.294563","latitude":"38.591881","address":"4255 Hampton Ave","city":"Saint Louis","state":"MO","zip5":"63109","county":"ST LOUIS CITY","created_at":"2014-01-22T19:27:46Z","updated_at":"2014-06-10T13:07:45Z","category":"Supercenter/Discount Retailer","cartodb_id":44,"description":null,"website":null}},{"type":"Feature","geometry":{"type":"Point","coordinates":[-90.243652,38.593975]},"properties":{"store_name":"Grand Trading Chinese Grocery","longitude":"-90.243652","latitude":"38.593975","address":"3469 S Grand Blvd","city":"Saint Louis","state":"MO","zip5":"63118","county":"ST LOUIS CITY","created_at":"2014-01-22T19:27:46Z","updated_at":"2014-06-10T13:10:59Z","category":"Specialty Store","cartodb_id":618,"description":null,"website":null}},{"type":"Feature","geometry":{"type":"Point","coordinates":[-90.257919,38.650009]},"properties":{"store_name":"Good Hair & More","longitude":"-90.257919","latitude":"38.650009","address":"4701 Washington Blvd","city":"Saint Louis","state":"MO","zip5":"63108","county":"ST LOUIS CITY","created_at":"2014-01-22T19:27:46Z","updated_at":"2014-06-10T18:08:28Z","category":"Convenience/Corner/Liquor Store","cartodb_id":394,"description":null,"website":null}},{"type":"Feature","geometry":{"type":"Point","coordinates":[-90.2565,38.657837]},"properties":{"store_name":"Adam Market","longitude":"-90.2565","latitude":"38.657837","address":"1247 Walton Ave","city":"Saint Louis","state":"MO","zip5":"63113","county":"ST LOUIS CITY","created_at":"2014-01-22T19:27:46Z","updated_at":"2014-06-10T18:08:43Z","category":"Convenience/Corner/Liquor Store","cartodb_id":485,"description":null,"website":null}},{"type":"Feature","geometry":{"type":"Point","coordinates":[-90.278809,38.574818]},"properties":{"store_name":"Oaza Ethnic Food Supermarket","longitude":"-90.278809","latitude":"38.574818","address":"6220 Gravois Ave","city":"Saint Louis","state":"MO","zip5":"63116","county":"ST LOUIS CITY","created_at":"2014-01-22T19:27:46Z","updated_at":"2014-06-10T19:40:47Z","category":"Specialty Store","cartodb_id":262,"description":null,"website":null}},{"type":"Feature","geometry":{"type":"Point","coordinates":[-90.264824,38.587955]},"properties":{"store_name":"INTERNATIONAL GROCERY","longitude":"-90.264824","latitude":"38.587955","address":"4414 Morganford Rd","city":"Saint Louis","state":"MO","zip5":"63116","county":"ST LOUIS CITY","created_at":"2014-01-22T19:27:46Z","updated_at":"2014-06-10T19:49:15Z","category":"Convenience/Corner/Liquor Store","cartodb_id":660,"description":null,"website":null}},{"type":"Feature","geometry":{"type":"Point","coordinates":[-90.200193,38.610537]},"properties":{"store_name":"Sals Produce","longitude":"-90.20015","latitude":"38.610516","address":"730 Carroll St","city":"Saint Louis","state":"MO","zip5":"63104","county":"ST LOUIS CITY","created_at":"2014-01-22T19:27:46Z","updated_at":"2014-07-29T16:37:36Z","category":"Farmers Market/Farm","cartodb_id":740,"description":"314-622-4180, SoulardMarket@aol.com, http://www.soulardmarket.com/","website":null}},{"type":"Feature","geometry":{"type":"Point","coordinates":[-90.200111,38.610516]},"properties":{"store_name":"Frandeka Meat Market","longitude":"-90.20015","latitude":"38.610516","address":"730 Carroll St","city":"Saint Louis","state":"MO","zip5":"63104","county":"ST LOUIS CITY","created_at":"2014-01-22T19:27:46Z","updated_at":"2014-07-29T16:38:00Z","category":"Farmers Market/Farm","cartodb_id":732,"description":"314-622-4180, SoulardMarket@aol.com, http://www.soulardmarket.com/","website":null}},{"type":"Feature","geometry":{"type":"Point","coordinates":[-90.200129,38.610525]},"properties":{"store_name":"George Simon Produce","longitude":"-90.20015","latitude":"38.610516","address":"730 Carroll St","city":"Saint Louis","state":"MO","zip5":"63104","county":"ST LOUIS CITY","created_at":"2014-01-22T19:27:46Z","updated_at":"2014-07-29T16:38:05Z","category":"Farmers Market/Farm","cartodb_id":730,"description":"314-622-4180, SoulardMarket@aol.com, http://www.soulardmarket.com/","website":null}},{"type":"Feature","geometry":{"type":"Point","coordinates":[-90.200173,38.610525]},"properties":{"store_name":"J W Schroeter Produce","longitude":"-90.20015","latitude":"38.610516","address":"730 Carroll St","city":"Saint Louis","state":"MO","zip5":"63104","county":"ST LOUIS CITY","created_at":"2014-01-22T19:27:46Z","updated_at":"2014-07-29T16:38:10Z","category":"Farmers Market/Farm","cartodb_id":725,"description":"314-622-4180, SoulardMarket@aol.com, http://www.soulardmarket.com/","website":null}},{"type":"Feature","geometry":{"type":"Point","coordinates":[-90.200149,38.610536]},"properties":{"store_name":"Chartrand Farms","longitude":"-90.20015","latitude":"38.610516","address":"730 Carroll St","city":"Saint Louis","state":"MO","zip5":"63104","county":"ST LOUIS CITY","created_at":"2014-01-22T19:27:46Z","updated_at":"2014-07-29T16:38:15Z","category":"Farmers Market/Farm","cartodb_id":719,"description":"314-622-4180, SoulardMarket@aol.com, http://www.soulardmarket.com/","website":null}},{"type":"Feature","geometry":{"type":"Point","coordinates":[-90.200163,38.610543]},"properties":{"store_name":"Dietz Farm","longitude":"-90.20015","latitude":"38.610516","address":"730 Carroll St","city":"Saint Louis","state":"MO","zip5":"63104","county":"ST LOUIS CITY","created_at":"2014-01-22T19:27:46Z","updated_at":"2014-07-29T16:38:28Z","category":"Farmers Market/Farm","cartodb_id":641,"description":"314-622-4180, SoulardMarket@aol.com, http://www.soulardmarket.com/","website":null}},{"type":"Feature","geometry":{"type":"Point","coordinates":[-90.20018,38.610555]},"properties":{"store_name":"Merkle Produce","longitude":"-90.20015","latitude":"38.610516","address":"730 Carroll St","city":"Saint Louis","state":"MO","zip5":"63104","county":"ST LOUIS CITY","created_at":"2014-01-22T19:27:46Z","updated_at":"2014-07-29T16:38:34Z","category":"Farmers Market/Farm","cartodb_id":638,"description":"314-622-4180, SoulardMarket@aol.com, http://www.soulardmarket.com/","website":null}},{"type":"Feature","geometry":{"type":"Point","coordinates":[-90.200112,38.610489]},"properties":{"store_name":"Brengards Market","longitude":"-90.20015","latitude":"38.610516","address":"730 Carroll St","city":"Saint Louis","state":"MO","zip5":"63104","county":"ST LOUIS CITY","created_at":"2014-01-22T19:27:46Z","updated_at":"2014-07-29T16:38:43Z","category":"Farmers Market/Farm","cartodb_id":586,"description":"314-622-4180, SoulardMarket@aol.com, http://www.soulardmarket.com/","website":null}},{"type":"Feature","geometry":{"type":"Point","coordinates":[-90.200102,38.610511]},"properties":{"store_name":"Sharon Wiszkon Produce","longitude":"-90.20015","latitude":"38.610516","address":"730 Carroll St","city":"Saint Louis","state":"MO","zip5":"63104","county":"ST LOUIS CITY","created_at":"2014-01-22T19:27:46Z","updated_at":"2014-07-29T16:38:56Z","category":"Farmers Market/Farm","cartodb_id":696,"description":"314-622-4180, SoulardMarket@aol.com, http://www.soulardmarket.com/","website":null}},{"type":"Feature","geometry":{"type":"Point","coordinates":[-90.200093,38.610504]},"properties":{"store_name":"Sheris Produce & Poultry","longitude":"-90.20015","latitude":"38.610516","address":"730 Carroll St","city":"Saint Louis","state":"MO","zip5":"63104","county":"ST LOUIS CITY","created_at":"2014-01-22T19:27:46Z","updated_at":"2014-07-29T16:39:07Z","category":"Farmers Market/Farm","cartodb_id":557,"description":"314-622-4180, SoulardMarket@aol.com, http://www.soulardmarket.com/","website":null}},{"type":"Feature","geometry":{"type":"Point","coordinates":[-90.200131,38.610501]},"properties":{"store_name":"Soulard Bakery","longitude":"-90.20015","latitude":"38.610516","address":"730 Carroll St","city":"Saint Louis","state":"MO","zip5":"63104","county":"ST LOUIS CITY","created_at":"2014-01-22T19:27:46Z","updated_at":"2014-07-29T16:39:49Z","category":"Farmers Market/Farm","cartodb_id":642,"description":"314-622-4180, SoulardMarket@aol.com, http://www.soulardmarket.com/","website":null}},{"type":"Feature","geometry":{"type":"Point","coordinates":[-90.30143,38.618904]},"properties":{"store_name":"Big Kmart 4720","longitude":"-90.30143","latitude":"38.618904","address":"6650 Manchester Ave","city":"Saint Louis","state":"MO","zip5":"63139","county":"ST LOUIS CITY","created_at":"2014-01-22T19:27:46Z","updated_at":"2014-06-26T19:27:24Z","category":"Supercenter/Discount Retailer","cartodb_id":613,"description":null,"website":null}},{"type":"Feature","geometry":{"type":"Point","coordinates":[-90.243931,38.5903]},"properties":{"store_name":"International Institute Global Farms Market","longitude":"","latitude":"","address":"3654 South Grand Blvd\n","city":"St. Louis","state":"MO","zip5":"63118","county":"","created_at":"2014-06-27T20:18:43Z","updated_at":"2014-06-27T20:20:01Z","category":"Farmers Market/Farm","cartodb_id":757,"description":"Farmers Market in lobby of International Institute","website":"http://www.iistl.org/"}},{"type":"Feature","geometry":{"type":"Point","coordinates":[-90.200123,38.610495]},"properties":{"store_name":"Lous Produce","longitude":"-90.20015","latitude":"38.610516","address":"730 Carroll St","city":"Saint Louis","state":"MO","zip5":"63104","county":"ST LOUIS CITY","created_at":"2014-01-22T19:27:46Z","updated_at":"2014-07-29T16:37:30Z","category":"Farmers Market/Farm","cartodb_id":741,"description":"314-622-4180, SoulardMarket@aol.com, http://www.soulardmarket.com/","website":null}},{"type":"Feature","geometry":{"type":"Point","coordinates":[-90.200104,38.610485]},"properties":{"store_name":"Scharf Farm","longitude":"-90.20015","latitude":"38.610516","address":"730 Carroll St","city":"Saint Louis","state":"MO","zip5":"63104","county":"ST LOUIS CITY","created_at":"2014-01-22T19:27:46Z","updated_at":"2014-07-29T16:38:51Z","category":"Farmers Market/Farm","cartodb_id":742,"description":"314-622-4180, SoulardMarket@aol.com, http://www.soulardmarket.com/","website":null}},{"type":"Feature","geometry":{"type":"Point","coordinates":[-90.200139,38.610531]},"properties":{"store_name":"Maria Hahn Farms","longitude":"-90.20015","latitude":"38.610516","address":"730 Carroll St","city":"Saint Louis","state":"MO","zip5":"63104","county":"ST LOUIS CITY","created_at":"2014-01-22T19:27:46Z","updated_at":"2014-07-29T16:39:19Z","category":"Farmers Market/Farm","cartodb_id":340,"description":"314-622-4180, SoulardMarket@aol.com, http://www.soulardmarket.com/","website":null}},{"type":"Feature","geometry":{"type":"Point","coordinates":[-90.20012,38.610521]},"properties":{"store_name":"J W Schroeter Produce 1","longitude":"-90.20015","latitude":"38.610516","address":"730 Carroll St","city":"Saint Louis","state":"MO","zip5":"63104","county":"ST LOUIS CITY","created_at":"2014-01-22T19:27:46Z","updated_at":"2014-07-29T16:39:25Z","category":"Farmers Market/Farm","cartodb_id":533,"description":"314-622-4180, SoulardMarket@aol.com, http://www.soulardmarket.com/","website":null}},{"type":"Feature","geometry":{"type":"Point","coordinates":[-90.20014,38.610507]},"properties":{"store_name":"Jennifers","longitude":"-90.20015","latitude":"38.610516","address":"730 Carroll St","city":"Saint Louis","state":"MO","zip5":"63104","county":"ST LOUIS CITY","created_at":"2014-01-22T19:27:46Z","updated_at":"2014-07-29T16:40:03Z","category":"Farmers Market/Farm","cartodb_id":290,"description":" 314-622-4180, SoulardMarket@aol.com, http://www.soulardmarket.com/","website":null}},{"type":"Feature","geometry":{"type":"Point","coordinates":[-90.200173,38.610549]},"properties":{"store_name":"M Schmitz Market Inc","longitude":"-90.20015","latitude":"38.610516","address":"730 Carroll St","city":"Saint Louis","state":"MO","zip5":"63104","county":"ST LOUIS CITY","created_at":"2014-01-22T19:27:46Z","updated_at":"2014-07-29T16:40:10Z","category":"Farmers Market/Farm","cartodb_id":531,"description":"314-622-4180, SoulardMarket@aol.com, http://www.soulardmarket.com/","website":null}},{"type":"Feature","geometry":{"type":"Point","coordinates":[-90.200202,38.610542]},"properties":{"store_name":"Cheapos Produce","longitude":"-90.20015","latitude":"38.610516","address":"730 Carroll St","city":"Saint Louis","state":"MO","zip5":"63104","county":"ST LOUIS CITY","created_at":"2014-01-22T19:27:46Z","updated_at":"2014-07-29T16:40:25Z","category":"Farmers Market/Farm","cartodb_id":528,"description":"314-622-4180, SoulardMarket@aol.com, http://www.soulardmarket.com/","website":null}},{"type":"Feature","geometry":{"type":"Point","coordinates":[-90.20019,38.610559]},"properties":{"store_name":"J & P Produce","longitude":"-90.20015","latitude":"38.610516","address":"730 Carroll St","city":"Saint Louis","state":"MO","zip5":"63104","county":"ST LOUIS CITY","created_at":"2014-01-22T19:27:46Z","updated_at":"2014-07-29T16:40:33Z","category":"Farmers Market/Farm","cartodb_id":756,"description":"Soulard Farmers Market, http://www.soulardmarket.com/, Contact Information: 314-622-4180, SoulardMarket@aol.com ","website":null}},{"type":"Feature","geometry":{"type":"Point","coordinates":[-90.200072,38.610494]},"properties":{"store_name":"Soulard Market","longitude":"-90.20015","latitude":"38.610516","address":"730 Carroll St","city":"Saint Louis","state":"MO","zip5":"63104","county":"ST LOUIS CITY","created_at":"2014-01-22T19:27:46Z","updated_at":"2014-07-29T16:41:14Z","category":"Farmers Market/Farm","cartodb_id":288,"description":" 314-622-4180, SoulardMarket@aol.com, http://www.soulardmarket.com/","website":null}},{"type":"Feature","geometry":{"type":"Point","coordinates":[-90.200219,38.610554]},"properties":{"store_name":"Roco Trading 23","longitude":"-90.199791","latitude":"38.610447","address":"730 Carroll St","city":"Saint Louis","state":"MO","zip5":"63104","county":"ST LOUIS CITY","created_at":"2014-01-22T19:27:46Z","updated_at":"2014-07-29T16:42:38Z","category":"Farmers Market/Farm","cartodb_id":63,"description":"314-622-4180, SoulardMarket@aol.com, http://www.soulardmarket.com/","website":null}}]}
