{"type": "FeatureCollection", "features": [{"type":"Feature","geometry":{"type":"Point","coordinates":[-90.316547,38.611303]},"properties":{"name":"Immaculate Conception Maplewood","address":"2934 Marshall Ave","city":"St. Louis","state":"MO","zip_code":"63143","description":"","phone":"","foodbank_partner":"","days_hours_open":"","verified_by_whom":"yes, SLU PH","cartodb_id":60,"created_at":"2014-04-02T15:53:17Z","updated_at":"2014-05-01T21:43:37Z"}},{"type":"Feature","geometry":{"type":"Point","coordinates":[-90.214982,38.676104]},"properties":{"name":"Inner City Christian Church","address":"1956 East Warne","city":"St. Louis","state":"MO","zip_code":"63107","description":"","phone":"314-385-9375","foodbank_partner":"St. Louis Area Foodbank","days_hours_open":"call for information","verified_by_whom":"yes, SLU PH","cartodb_id":61,"created_at":"2014-04-02T15:53:17Z","updated_at":"2014-05-01T21:44:25Z"}},{"type":"Feature","geometry":{"type":"Point","coordinates":[-90.255238,38.616571]},"properties":{"name":"Isaiah 58 Mt. Olive","address":"4246 Shaw Blvd","city":"St. Louis","state":"MO","zip_code":"63110","description":"","phone":"314-771-5714","foodbank_partner":"Operation Food Search","days_hours_open":"","verified_by_whom":"","cartodb_id":63,"created_at":"2014-04-02T15:53:17Z","updated_at":"2014-05-01T21:46:31Z"}},{"type":"Feature","geometry":{"type":"Point","coordinates":[-90.223749,38.587834]},"properties":{"name":"Broadway Baptist Church","address":"3662 South Broadway","city":"St. Louis","state":"MO","zip_code":"63118","description":"","phone":"314-532-2948","foodbank_partner":"St. Louis Area Foodbank","days_hours_open":"Tuesday 10AM-12PM","verified_by_whom":"","cartodb_id":17,"created_at":"2014-04-02T15:53:17Z","updated_at":"2014-05-01T17:52:14Z"}},{"type":"Feature","geometry":{"type":"Point","coordinates":[-90.270217,38.72183]},"properties":{"name":"Brotherly Love West","address":"7348 W. Florissant Ave","city":"St. Louis","state":"MO","zip_code":"63136","description":"","phone":"314-382-7444","foodbank_partner":"Operation Food Search/St. Louis Area Foodbank","days_hours_open":"1st and 3rd Tuesday 1-3PM","verified_by_whom":"yes, SLU PH","cartodb_id":18,"created_at":"2014-04-02T15:53:17Z","updated_at":"2014-05-01T17:53:12Z"}},{"type":"Feature","geometry":{"type":"Point","coordinates":[-90.261742,38.655286]},"properties":{"name":"Centennial's Pantry","address":"4950 Fountain","city":"St. Louis","state":"MO","zip_code":"63113","description":"cccstl.org","phone":"314-367-1818","foodbank_partner":"Operation Food Search","days_hours_open":"","verified_by_whom":"","cartodb_id":21,"created_at":"2014-04-02T15:53:17Z","updated_at":"2014-05-01T18:04:41Z"}},{"type":"Feature","geometry":{"type":"Point","coordinates":[-90.241532,38.593185]},"properties":{"name":"Brothers Keepers","address":"3452 Potomac Street","city":"St. Louis","state":"MO","zip_code":"63118","description":"","phone":"314-772-8444","foodbank_partner":"Operation Food Search","days_hours_open":"","verified_by_whom":"","cartodb_id":19,"created_at":"2014-04-02T15:53:17Z","updated_at":"2014-05-01T17:53:48Z"}},{"type":"Feature","geometry":{"type":"Point","coordinates":[-90.31216,38.638114]},"properties":{"name":"Concordia Seminary","address":"801 Seminary Place","city":"St. Louis","state":"MO","zip_code":"63105","description":"","phone":"314-303-5976","foodbank_partner":"St. Louis Area Foodbank","days_hours_open":"Tuesday: 4-7PM, Saturday: 9:30-11:30AM","verified_by_whom":"","cartodb_id":28,"created_at":"2014-04-02T15:53:17Z","updated_at":"2014-05-01T18:22:01Z"}},{"type":"Feature","geometry":{"type":"Point","coordinates":[-90.235828,38.636674]},"properties":{"name":"Campus Kitchen (SLU)","address":"3753 West Pine Mall #102","city":"St. Louis","state":"MO","zip_code":"63108","description":"for referred clients only","phone":"314-977-3881","foodbank_partner":"Operation Food Search/St. Louis Area Foodbank","days_hours_open":"call for information","verified_by_whom":"yes, SLU PH","cartodb_id":20,"created_at":"2014-04-02T15:53:17Z","updated_at":"2014-05-01T18:03:16Z"}},{"type":"Feature","geometry":{"type":"Point","coordinates":[-90.230161,38.714307]},"properties":{"name":"Church of God at Baden","address":"8375 North Broadway","city":"St. Louis","state":"MO","zip_code":"63147","description":"cogab.net","phone":"314-261-1376","foodbank_partner":"St. Louis Area Foodbank","days_hours_open":"Saturday 9:30-11:30AM","verified_by_whom":"yes, SLU PH","cartodb_id":24,"created_at":"2014-04-02T15:53:17Z","updated_at":"2014-05-01T18:10:21Z"}},{"type":"Feature","geometry":{"type":"Point","coordinates":[-90.241681,38.589711]},"properties":{"name":"Chapel for the Exceptional (The Waymakers)","address":"3436 Winnebago Street","city":"St. Louis","state":"MO","zip_code":"63118","description":"","phone":"314-776-7172","foodbank_partner":"Operation Food Search","days_hours_open":"","verified_by_whom":"","cartodb_id":22,"created_at":"2014-04-02T15:53:17Z","updated_at":"2014-05-01T18:07:07Z"}},{"type":"Feature","geometry":{"type":"Point","coordinates":[-90.261907,38.661156]},"properties":{"name":"Christ Pilgrim Rest","address":"1341 North Kingshighway Boulevard","city":"St. Louis","state":"MO","zip_code":"63113","description":"","phone":"","foodbank_partner":"","days_hours_open":"","verified_by_whom":"yes, SLU PH","cartodb_id":23,"created_at":"2014-04-02T15:53:17Z","updated_at":"2014-05-01T18:09:03Z"}},{"type":"Feature","geometry":{"type":"Point","coordinates":[-90.263477,38.663479]},"properties":{"name":"Elmwood Memorial Emergency Food Pantry","address":"5048 Dr. Martin Luther King Drive","city":"St. Louis","state":"MO","zip_code":"63113","description":"","phone":"314-367-9130","foodbank_partner":"Operation Food Search/St. Louis Area Foodbank","days_hours_open":"3rd Saturday, 11AM-2:30PM","verified_by_whom":"yes, SLU PH","cartodb_id":31,"created_at":"2014-04-02T15:53:17Z","updated_at":"2014-05-01T18:40:48Z"}},{"type":"Feature","geometry":{"type":"Point","coordinates":[-90.190548,38.653459]},"properties":{"name":"Circle of Concern","address":"112 St. Louis Ave","city":"St. Louis","state":"MO","zip_code":"63102","description":"","phone":"","foodbank_partner":"","days_hours_open":"","verified_by_whom":"yes, SLU PH","cartodb_id":25,"created_at":"2014-04-02T15:53:17Z","updated_at":"2014-05-01T18:12:16Z"}},{"type":"Feature","geometry":{"type":"Point","coordinates":[-90.261907,38.661156]},"properties":{"name":"CPR Food Pantry","address":"1341 N. Kingshighway","city":"St. Louis","state":"MO","zip_code":"63113","description":"","phone":"314-367-2974","foodbank_partner":"Operation Food Search/St. Louis Area Foodbank","days_hours_open":"Tuesday/Thursday, 8:30-10:30AM","verified_by_whom":"","cartodb_id":29,"created_at":"2014-04-02T15:53:17Z","updated_at":"2014-05-01T18:39:51Z"}},{"type":"Feature","geometry":{"type":"Point","coordinates":[-90.25083,38.738388]},"properties":{"name":"Coleman Wright/All Nations Resource Center","address":"9777 Halls Ferry Road","city":"St. Louis","state":"MO","zip_code":"63136","description":"","phone":"314-869-6636","foodbank_partner":"Operation Food Search/St. Louis Area Foodbank","days_hours_open":"Friday 8:30-10AM","verified_by_whom":"yes, SLU PH","cartodb_id":27,"created_at":"2014-04-02T15:53:17Z","updated_at":"2014-05-01T18:14:48Z"}},{"type":"Feature","geometry":{"type":"Point","coordinates":[-90.302837,38.607062]},"properties":{"name":"Epiphany of Our Lord","address":"6595 Smiley Avenue","city":"St. Louis","state":"MO","zip_code":"63139","description":"","phone":"314-781-1199","foodbank_partner":"St. Louis Area Foodbank","days_hours_open":"Call for information","verified_by_whom":"yes, SLU PH","cartodb_id":34,"created_at":"2014-04-02T15:53:17Z","updated_at":"2014-05-01T18:42:37Z"}},{"type":"Feature","geometry":{"type":"Point","coordinates":[-90.200509,38.613092]},"properties":{"name":"Emmanuel Food Pantry","address":"1445 9th Street","city":"St. Louis","state":"MO","zip_code":"63106","description":"","phone":"314-482-2594","foodbank_partner":"Operation Food Search","days_hours_open":"","verified_by_whom":"","cartodb_id":32,"created_at":"2014-04-02T15:53:17Z","updated_at":"2014-05-01T18:41:23Z"}},{"type":"Feature","geometry":{"type":"Point","coordinates":[-90.24172,38.572194]},"properties":{"name":"Diane's House","address":"3202 Pulaski","city":"St. Louis","state":"MO","zip_code":"63111","description":"residential meal program","phone":"314-352-0056","foodbank_partner":"Operation Food Search","days_hours_open":"","verified_by_whom":"","cartodb_id":30,"created_at":"2014-04-02T15:53:17Z","updated_at":"2014-05-01T18:40:28Z"}},{"type":"Feature","geometry":{"type":"Point","coordinates":[-90.29012,38.677137]},"properties":{"name":"Evangelist Center Love & Compassion","address":"6404 Dr. Martin Luther King Drive","city":"St. Louis","state":"MO","zip_code":"63133","description":"","phone":"314-383-9019","foodbank_partner":"Operation Food Search/St. Louis Area Foodbank","days_hours_open":"3rd Saturday, 10AM-12PM","verified_by_whom":"","cartodb_id":38,"created_at":"2014-04-02T15:53:17Z","updated_at":"2014-05-01T18:44:39Z"}},{"type":"Feature","geometry":{"type":"Point","coordinates":[-90.302837,38.607062]},"properties":{"name":"Epworth","address":"6808 Washington","city":"St. Louis","state":"MO","zip_code":"63130","description":"for clients only ","phone":"314-222-4869","foodbank_partner":"Operation Food Search","days_hours_open":"","verified_by_whom":"","cartodb_id":35,"created_at":"2014-04-02T15:53:17Z","updated_at":"2014-05-01T18:43:35Z"}},{"type":"Feature","geometry":{"type":"Point","coordinates":[-90.189304,38.640124]},"properties":{"name":"Emmanuel SDA Church","address":"818 Cass Avenue","city":"St. Louis","state":"MO","zip_code":"63103","description":"","phone":"314-482-2594","foodbank_partner":"St. Louis Area Foodbank","days_hours_open":"Thursday, 9-11:30AM","verified_by_whom":"","cartodb_id":33,"created_at":"2014-04-02T15:53:17Z","updated_at":"2014-05-01T18:42:13Z"}},{"type":"Feature","geometry":{"type":"Point","coordinates":[-90.254213,38.660617]},"properties":{"name":"ETCA Ministry","address":"4723 Dr. Martin Luther King Dr.","city":"St. Louis","state":"MO","zip_code":"63113","description":"","phone":"314-662-1649","foodbank_partner":"St. Louis Area Foodbank","days_hours_open":"by appointment","verified_by_whom":"yes, SLU PH","cartodb_id":37,"created_at":"2014-04-02T15:53:17Z","updated_at":"2014-05-01T18:44:23Z"}},{"type":"Feature","geometry":{"type":"Point","coordinates":[-90.273445,38.590221]},"properties":{"name":"Family Food Pantry","address":"4228 S. Kingshighway Blvd","city":"St. Louis","state":"MO","zip_code":"63109","description":"","phone":"314-646-7940","foodbank_partner":"Operation Food Search/St. Louis Area Foodbank","days_hours_open":"Saturday, 10:30-11:45AM","verified_by_whom":"yes, SLU PH","cartodb_id":40,"created_at":"2014-04-02T15:53:17Z","updated_at":"2014-05-01T18:45:29Z"}},{"type":"Feature","geometry":{"type":"Point","coordinates":[-90.231451,38.647715]},"properties":{"name":"Estell Ministries Food Pantry","address":"3803 Page Boulevard","city":"St. Louis","state":"MO","zip_code":"63113","description":"","phone":"314-602-8107","foodbank_partner":"St. Louis Area Foodbank","days_hours_open":"Saturday 9:30-11:30AM","verified_by_whom":"yes, SLU PH","cartodb_id":36,"created_at":"2014-04-02T15:53:17Z","updated_at":"2014-05-01T18:44:03Z"}},{"type":"Feature","geometry":{"type":"Point","coordinates":[-90.214403,38.608044]},"properties":{"name":"Focus-Gateway City","address":"1901 Ann Ave","city":"St. Louis","state":"MO","zip_code":"63104","description":"","phone":"314-776-4205","foodbank_partner":"St. Louis Area Foodbank","days_hours_open":"Wednesday, 9-11:30AM","verified_by_whom":"","cartodb_id":42,"created_at":"2014-04-02T15:53:17Z","updated_at":"2014-05-01T18:46:42Z"}},{"type":"Feature","geometry":{"type":"Point","coordinates":[-90.245474,38.65803]},"properties":{"name":"Faith Church of God and S of C","address":"4415 Aldine Ave","city":"St. Louis","state":"MO","zip_code":"63115","description":"","phone":"","foodbank_partner":"","days_hours_open":"","verified_by_whom":"yes, SLU PH","cartodb_id":39,"created_at":"2014-04-02T15:53:17Z","updated_at":"2014-05-01T18:44:58Z"}},{"type":"Feature","geometry":{"type":"Point","coordinates":[-90.281003,38.520175]},"properties":{"name":"Feed My People - Lemay","address":"171 Kingston Drive","city":"St. Louis","state":"MO","zip_code":"63125","description":"http://www.feed-my-people.org/","phone":"314-631-4900","foodbank_partner":"Operation Food Search","days_hours_open":"Monday-Friday 10AM-3PM","verified_by_whom":"yes, SLU PH","cartodb_id":41,"created_at":"2014-04-02T15:53:17Z","updated_at":"2014-05-01T18:45:56Z"}},{"type":"Feature","geometry":{"type":"Point","coordinates":[-90.212251,38.772368]},"properties":{"name":"Liberty Community Outreach Pantry","address":"11221 Larimore","city":"St. Louis","state":"MO","zip_code":"63138","description":"","phone":"314-575-2448","foodbank_partner":"Operation Food Search/St. Louis Area Foodbank","days_hours_open":"Saturday 11AM-1PM","verified_by_whom":"yes, SLU PH","cartodb_id":75,"created_at":"2014-04-02T15:53:17Z","updated_at":"2014-05-07T21:53:29Z"}},{"type":"Feature","geometry":{"type":"Point","coordinates":[-90.256198,38.629039]},"properties":{"name":"Labor of Love","address":"1015 Tower Grove Avenue","city":"St. Louis","state":"MO","zip_code":"63110","description":"","phone":"314-867-4487","foodbank_partner":"Operation Food Search","days_hours_open":"","verified_by_whom":"","cartodb_id":72,"created_at":"2014-04-02T15:53:17Z","updated_at":"2014-05-07T21:52:37Z"}},{"type":"Feature","geometry":{"type":"Point","coordinates":[-90.292719,38.673748]},"properties":{"name":"Love Ministry Outreach - New Emmanuel MB","address":"6233 Chatham ","city":"St. Louis","state":"MO","zip_code":"63133","description":"","phone":"314-382-6469","foodbank_partner":"Operation Food Search","days_hours_open":"","verified_by_whom":"","cartodb_id":79,"created_at":"2014-04-02T15:53:17Z","updated_at":"2014-05-07T21:54:26Z"}},{"type":"Feature","geometry":{"type":"Point","coordinates":[-90.299399,38.704764]},"properties":{"name":"Ladies of Charity","address":"7500 Natural Bridge Road","city":"St. Louis","state":"MO","zip_code":"63121","description":"","phone":"","foodbank_partner":"","days_hours_open":"","verified_by_whom":"yes, SLU PH","cartodb_id":73,"created_at":"2014-04-02T15:53:17Z","updated_at":"2014-05-07T21:52:54Z"}},{"type":"Feature","geometry":{"type":"Point","coordinates":[-90.273156,38.653765]},"properties":{"name":"Life Center International","address":"800 N. Union","city":"St. Louis","state":"MO","zip_code":"63108","description":"","phone":"314-367-5433","foodbank_partner":"St. Louis Area Foodbank","days_hours_open":"Tuesday, 5:30-7PM","verified_by_whom":"","cartodb_id":76,"created_at":"2014-04-02T15:53:17Z","updated_at":"2014-05-07T21:53:46Z"}},{"type":"Feature","geometry":{"type":"Point","coordinates":[-90.249776,38.649987]},"properties":{"name":"Lane Tabernacle CME Church","address":"910 North Newstead","city":"St. Louis","state":"MO","zip_code":"63108","description":"","phone":"314-533-0534","foodbank_partner":"St. Louis Area Foodbank","days_hours_open":"Thursday, 10AM-12PM","verified_by_whom":"yes, SLU PH","cartodb_id":74,"created_at":"2014-04-02T15:53:17Z","updated_at":"2014-05-07T21:53:09Z"}},{"type":"Feature","geometry":{"type":"Point","coordinates":[-90.245678,38.66058]},"properties":{"name":"Nash Prayer Band Church","address":"1918 N. Taylor","city":"St. Louis","state":"MO","zip_code":"63113","description":"","phone":"314-534-7026","foodbank_partner":"Operation Food Search","days_hours_open":"","verified_by_whom":"","cartodb_id":87,"created_at":"2014-04-02T15:53:17Z","updated_at":"2014-05-07T21:56:20Z"}},{"type":"Feature","geometry":{"type":"Point","coordinates":[-90.231944,38.660152]},"properties":{"name":"MCCB Transitions","address":"4110 St. Louis Avenue","city":"St. Louis","state":"MO","zip_code":"63115","description":"","phone":"314-371-1657","foodbank_partner":"Operation Food Search","days_hours_open":"","verified_by_whom":"","cartodb_id":80,"created_at":"2014-04-02T15:53:17Z","updated_at":"2014-05-07T21:54:41Z"}},{"type":"Feature","geometry":{"type":"Point","coordinates":[-90.233745,38.715331]},"properties":{"name":"Life Center International COGIC","address":"8500 Halls Ferry Road","city":"St. Louis","state":"MO","zip_code":"63147","description":"","phone":"314-452-6880","foodbank_partner":"Operation Food Search","days_hours_open":"","verified_by_whom":"","cartodb_id":77,"created_at":"2014-04-02T15:53:17Z","updated_at":"2014-05-07T21:53:59Z"}},{"type":"Feature","geometry":{"type":"Point","coordinates":[-90.299285,38.654758]},"properties":{"name":"Merry Makers New Cote Brilliante COG","address":"6195 Washington Blvd","city":"St. Louis","state":"MO","zip_code":"63112","description":"","phone":"314-727-3550","foodbank_partner":"Operation Food Search","days_hours_open":"","verified_by_whom":"","cartodb_id":82,"created_at":"2014-04-02T15:53:17Z","updated_at":"2014-05-07T21:55:08Z"}},{"type":"Feature","geometry":{"type":"Point","coordinates":[-90.275462,38.694756]},"properties":{"name":"Miracle Temple Church","address":"4001 Jennings Station Road","city":"St. Louis","state":"MO","zip_code":"63121","description":"","phone":"","foodbank_partner":"","days_hours_open":"","verified_by_whom":"","cartodb_id":84,"created_at":"2014-04-02T15:53:17Z","updated_at":"2014-05-07T21:55:34Z"}},{"type":"Feature","geometry":{"type":"Point","coordinates":[-90.253984,38.672268]},"properties":{"name":"Memorial Blvd Christian Church","address":"3000 North Kingshighway","city":"St. Louis","state":"MO","zip_code":"63115","description":"","phone":"314-367-6817","foodbank_partner":"St. Louis Area Foodbank","days_hours_open":"Tuesday/Thursday, 2-4PM","verified_by_whom":"yes, SLU PH","cartodb_id":81,"created_at":"2014-04-02T15:53:17Z","updated_at":"2014-05-07T21:54:54Z"}},{"type":"Feature","geometry":{"type":"Point","coordinates":[-90.250912,38.723841]},"properties":{"name":"Metro North Family Ministries","address":"8850 Jennings Station Rd","city":"St. Louis","state":"MO","zip_code":"63136","description":"","phone":"314-382-1579","foodbank_partner":"St. Louis Area Foodbank","days_hours_open":"Thursday 2-6PM, Friday 11AM-3PM","verified_by_whom":"","cartodb_id":83,"created_at":"2014-04-02T15:53:17Z","updated_at":"2014-05-07T21:55:21Z"}},{"type":"Feature","geometry":{"type":"Point","coordinates":[-90.242057,38.687973]},"properties":{"name":"Mt. Nebo Pantry","address":"4981 Theodore Ave","city":"St. Louis","state":"MO","zip_code":"63115","description":"","phone":"314-389-2269","foodbank_partner":"Operation Food Search/St. Louis Area Foodbank","days_hours_open":"Wednesday 9AM-12PM","verified_by_whom":"yes, SLU PH","cartodb_id":86,"created_at":"2014-04-02T15:53:17Z","updated_at":"2014-05-07T21:56:04Z"}},{"type":"Feature","geometry":{"type":"Point","coordinates":[-90.2361,38.662616]},"properties":{"name":"Mt. Chapel MB Church","address":"2929 Lambdin Avenue","city":"St. Louis","state":"MO","zip_code":"63115","description":"","phone":"314-531-7794","foodbank_partner":"St. Louis Area Foodbank","days_hours_open":"Monday-Saturday 6AM-6PM","verified_by_whom":"yes, SLU PH","cartodb_id":85,"created_at":"2014-04-02T15:53:17Z","updated_at":"2014-05-07T21:55:48Z"}},{"type":"Feature","geometry":{"type":"Point","coordinates":[-90.229124,38.726343]},"properties":{"name":"Riverview Church of God","address":"825 Riverview","city":"St. Louis","state":"MO","zip_code":"63147","description":"","phone":"314-867-3773","foodbank_partner":"Operation Food Search/St. Louis Area Foodbank","days_hours_open":"1st and 3rd Tuesday 11AM-1:30PM","verified_by_whom":"yes, SLU PH","cartodb_id":105,"created_at":"2014-04-02T15:53:17Z","updated_at":"2014-05-08T12:11:37Z"}},{"type":"Feature","geometry":{"type":"Point","coordinates":[-90.260683,38.650244]},"properties":{"name":"Trinity Episcopal","address":"600 N Euclid Ave","city":"St. Louis","state":"MO","zip_code":"63108","description":"trinityepiscopal.net","phone":"314-361-4655","foodbank_partner":"","days_hours_open":"","verified_by_whom":"yes, SLU PH","cartodb_id":163,"created_at":"2014-04-02T15:53:17Z","updated_at":"2014-05-07T22:04:41Z"}},{"type":"Feature","geometry":{"type":"Point","coordinates":[-90.231293,38.712703]},"properties":{"name":"Trinity CHAMPS C2000","address":"8319 Halls Ferry Road","city":"St. Louis","state":"MO","zip_code":"63147","description":"","phone":"314-389-8777","foodbank_partner":"Operation Food Search, St. Louis Area Foodbank","days_hours_open":"Saturday 10AM-12PM","verified_by_whom":"","cartodb_id":162,"created_at":"2014-04-02T15:53:17Z","updated_at":"2014-05-07T22:04:55Z"}},{"type":"Feature","geometry":{"type":"Point","coordinates":[-90.212949,38.658124]},"properties":{"name":"Star Bethel Fullgospel","address":"3529 N Jefferson Ave","city":"St. Louis","state":"MO","zip_code":"63107","description":"","phone":"314-531-3554","foodbank_partner":"Operation Food Search/St. Louis Area Foodbank","days_hours_open":"Every Other Saturday, 9AM-12PM","verified_by_whom":"yes, SLU PH","cartodb_id":156,"created_at":"2014-04-02T15:53:17Z","updated_at":"2014-05-07T22:06:40Z"}},{"type":"Feature","geometry":{"type":"Point","coordinates":[-90.303109,38.621717]},"properties":{"name":"Franz Park ","address":"6748 Mitchell Avenue","city":"St. Louis","state":"MO","zip_code":"63139","description":"Summer Meal Site: July 1-3rd, July 5th, July 8-12","phone":"","foodbank_partner":"Operation Food Search","days_hours_open":"","verified_by_whom":"","cartodb_id":43,"created_at":"2014-04-02T15:53:17Z","updated_at":"2014-05-01T18:47:20Z"}},{"type":"Feature","geometry":{"type":"Point","coordinates":[-90.22659,38.749106]},"properties":{"name":"Friedens Chapel","address":"1060 Chambers Road","city":"St. Louis","state":"MO","zip_code":"63137","description":"","phone":"314-867-2782","foodbank_partner":"St. Louis Area Foodbank","days_hours_open":"3rd and 4th Saturday 9:30AM-12PM","verified_by_whom":"yes, SLU PH","cartodb_id":44,"created_at":"2014-04-02T15:53:17Z","updated_at":"2014-05-01T18:48:47Z"}},{"type":"Feature","geometry":{"type":"Point","coordinates":[-90.250912,38.723841]},"properties":{"name":"Good News Baptist Church","address":"8850 Jennings Station Rd","city":"St. Louis","state":"MO","zip_code":"63136","description":"","phone":"314-808-2659","foodbank_partner":"St. Louis Area Foodbank","days_hours_open":"4th Saturday, 9:30-11:30AM","verified_by_whom":"","cartodb_id":47,"created_at":"2014-04-02T15:53:17Z","updated_at":"2014-05-01T18:50:49Z"}},{"type":"Feature","geometry":{"type":"Point","coordinates":[-90.281879,38.653276]},"properties":{"name":"Grace and Peace Fellowship","address":"5574 Delmar Blvd","city":"St. Louis","state":"MO","zip_code":"63112","description":"","phone":"314-367-8959","foodbank_partner":"St. Louis Area Foodbank","days_hours_open":"1st and 3rd Wednesday, 1:30-2:30PM","verified_by_whom":"yes, SLU PH","cartodb_id":48,"created_at":"2014-04-02T15:53:17Z","updated_at":"2014-05-01T19:01:30Z"}},{"type":"Feature","geometry":{"type":"Point","coordinates":[-90.227334,38.675415]},"properties":{"name":"Grace Fellowship","address":"4276 Athlone Avenue","city":"St. Louis","state":"MO","zip_code":"63115","description":"","phone":"314-629-5842","foodbank_partner":"Operation Food Search","days_hours_open":"","verified_by_whom":"","cartodb_id":49,"created_at":"2014-04-02T15:53:17Z","updated_at":"2014-05-01T19:03:18Z"}},{"type":"Feature","geometry":{"type":"Point","coordinates":[-90.300214,38.651142]},"properties":{"name":"Grace U.M.C. Food Pantry","address":"6199 Waterman Blvd","city":"St. Louis","state":"MO","zip_code":"63112","description":"","phone":"314-863-1992","foodbank_partner":"Operation Food Search/St. Louis Area Foodbank","days_hours_open":"Tuesday, 9:45-11:45AM","verified_by_whom":"yes, SLU PH","cartodb_id":52,"created_at":"2014-04-02T15:53:17Z","updated_at":"2014-05-01T19:05:38Z"}},{"type":"Feature","geometry":{"type":"Point","coordinates":[-90.254726,38.658088]},"properties":{"name":"Great Things Inc","address":"4675 Page Blvd","city":"St. Louis","state":"MO","zip_code":"63113","description":"","phone":"314-363-8679","foodbank_partner":"St. Louis Area Foodbank","days_hours_open":"Tuesday-Thursday, 11AM-1PM","verified_by_whom":"yes, SLU PH","cartodb_id":53,"created_at":"2014-04-02T15:53:17Z","updated_at":"2014-05-01T19:06:28Z"}},{"type":"Feature","geometry":{"type":"Point","coordinates":[-90.264033,38.542177]},"properties":{"name":"Harris House","address":"8327 South Broadway","city":"St. Louis","state":"MO","zip_code":"63111","description":"residential meal program, harrishouse.org","phone":"314-631-4299","foodbank_partner":"Operation Food Search","days_hours_open":"","verified_by_whom":"","cartodb_id":54,"created_at":"2014-04-02T15:53:17Z","updated_at":"2014-05-01T19:07:24Z"}},{"type":"Feature","geometry":{"type":"Point","coordinates":[-90.200564,38.787679]},"properties":{"name":"Helping Hands Food Pantry","address":"1120 Trampe Ave","city":"St. Louis","state":"MO","zip_code":"63138","description":"","phone":"314-741-5667","foodbank_partner":"Operation Food Search/St. Louis Area Foodbank","days_hours_open":"Thursday 10AM-1PM","verified_by_whom":"yes, SLU PH","cartodb_id":57,"created_at":"2014-04-02T15:53:17Z","updated_at":"2014-05-01T19:17:47Z"}},{"type":"Feature","geometry":{"type":"Point","coordinates":[-90.290478,38.610177]},"properties":{"name":"Hi-Pointe Community Center","address":"6020 Southwest Ave","city":"St. Louis","state":"MO","zip_code":"63139","description":"","phone":"314-781-1617","foodbank_partner":"Operation Food Search/St. Louis Area Foodbank","days_hours_open":"Monday/Tuesday/Wednesday 9AM-4PM","verified_by_whom":"yes, SLU PH","cartodb_id":58,"created_at":"2014-04-02T15:53:17Z","updated_at":"2014-05-01T19:18:18Z"}},{"type":"Feature","geometry":{"type":"Point","coordinates":[-90.230561,38.756253]},"properties":{"name":"Holy Name of Jesus Catholic","address":"10235 Ashbrook Drive","city":"St. Louis","state":"MO","zip_code":"63137","description":"","phone":"314-868-2310","foodbank_partner":"St. Louis Area Foodbank","days_hours_open":"2nd Saturday 10-11AM","verified_by_whom":"yes, SLU PH","cartodb_id":59,"created_at":"2014-04-02T15:53:17Z","updated_at":"2014-05-01T19:18:46Z"}},{"type":"Feature","geometry":{"type":"Point","coordinates":[-90.285207,38.669987]},"properties":{"name":"St. Augustine SVDP","address":"1371 Hamilton Avenue","city":"St. Louis","state":"MO","zip_code":"63112","description":"","phone":"314-381-3081","foodbank_partner":"Operation Food Search/St. Louis Area Foodbank","days_hours_open":"Monday/Wednesday, 9:30AM-11:30AM","verified_by_whom":"yes, SLU PH","cartodb_id":127,"created_at":"2014-04-02T15:53:17Z","updated_at":"2014-05-08T12:41:41Z"}},{"type":"Feature","geometry":{"type":"Point","coordinates":[-90.277911,38.696138]},"properties":{"name":"Pine Lawn Glen Echo Food Pantry","address":"6502 Oxford Lane","city":"St. Louis","state":"MO","zip_code":"63121","description":"","phone":"314-261-5266","foodbank_partner":"Operation Food Search","days_hours_open":"","verified_by_whom":"","cartodb_id":101,"created_at":"2014-04-02T15:53:17Z","updated_at":"2014-05-08T12:07:16Z"}},{"type":"Feature","geometry":{"type":"Point","coordinates":[-90.215653,38.64212]},"properties":{"name":"Prince of Peace","address":"2741 Dayton Street","city":"St. Louis","state":"MO","zip_code":"63106","description":"","phone":"314-371-7580","foodbank_partner":"Operation Food Search","days_hours_open":"","verified_by_whom":"","cartodb_id":102,"created_at":"2014-04-02T15:53:17Z","updated_at":"2014-05-08T12:07:41Z"}},{"type":"Feature","geometry":{"type":"Point","coordinates":[-90.253519,38.595985]},"properties":{"name":"Prophesy M.B.C.","address":"3404 Roger Place","city":"St. Louis","state":"MO","zip_code":"63116","description":"","phone":"314-772-2298","foodbank_partner":"Operation Food Search/St. Louis Area Foodbank","days_hours_open":"Wednesday: 3:30-5:30PM, Friday: 2-5PM","verified_by_whom":"","cartodb_id":103,"created_at":"2014-04-02T15:53:17Z","updated_at":"2014-05-08T12:08:06Z"}},{"type":"Feature","geometry":{"type":"Point","coordinates":[-90.19943,38.658351]},"properties":{"name":"Restoration Ministries","address":"1510 Agnes Street","city":"St. Louis","state":"MO","zip_code":"63107","description":"","phone":"314-241-3273","foodbank_partner":"St. Louis Area Foodbank","days_hours_open":"1st and 3rd Saturdays, 2-4PM","verified_by_whom":"","cartodb_id":104,"created_at":"2014-04-02T15:53:17Z","updated_at":"2014-05-08T12:08:42Z"}},{"type":"Feature","geometry":{"type":"Point","coordinates":[-90.252284,38.656452]},"properties":{"name":"Ruth Faulkner Food Pantry","address":"1220 Rev G H Pruitt Place","city":"St. Louis","state":"MO","zip_code":"63113","description":"","phone":"314-535-7548","foodbank_partner":"St. Louis Area Foodbank","days_hours_open":"2nd and 4th Wednesday 11AM-1PM","verified_by_whom":"yes, SLU PH","cartodb_id":107,"created_at":"2014-04-02T15:53:17Z","updated_at":"2014-05-08T12:12:24Z"}},{"type":"Feature","geometry":{"type":"Point","coordinates":[-90.252284,38.656452]},"properties":{"name":"Saints Fellowship Mission","address":"6145 Bartmer","city":"St. Louis","state":"MO","zip_code":"63133","description":"","phone":"314-725-5671","foodbank_partner":"Operation Food Search","days_hours_open":"","verified_by_whom":"","cartodb_id":108,"created_at":"2014-04-02T15:53:17Z","updated_at":"2014-05-08T12:12:54Z"}},{"type":"Feature","geometry":{"type":"Point","coordinates":[-90.252284,38.656452]},"properties":{"name":"Salvation Army","address":"824 Union Road","city":"St. Louis","state":"MO","zip_code":"63123","description":"","phone":"","foodbank_partner":"","days_hours_open":"","verified_by_whom":"yes, SLU PH","cartodb_id":109,"created_at":"2014-04-02T15:53:17Z","updated_at":"2014-05-08T12:29:15Z"}},{"type":"Feature","geometry":{"type":"Point","coordinates":[-90.25416,38.667256]},"properties":{"name":"Salvation Army - Euclid","address":"2618 N Euclid Ave","city":"St. Louis","state":"MO","zip_code":"63113","description":"","phone":"314-531-5621","foodbank_partner":"St. Louis Area Foodbank","days_hours_open":"call for information","verified_by_whom":"yes, SLU PH","cartodb_id":110,"created_at":"2014-04-02T15:53:17Z","updated_at":"2014-05-08T12:30:09Z"}},{"type":"Feature","geometry":{"type":"Point","coordinates":[-90.326816,38.617153]},"properties":{"name":"Salvation Army - Maplewood","address":"7701 Rannells Ave","city":"St. Louis","state":"MO","zip_code":"63143","description":"","phone":"","foodbank_partner":"","days_hours_open":"","verified_by_whom":"yes, SLU PH","cartodb_id":111,"created_at":"2014-04-02T15:53:17Z","updated_at":"2014-05-08T12:30:36Z"}},{"type":"Feature","geometry":{"type":"Point","coordinates":[-90.27152,38.693867]},"properties":{"name":"Salvation Army - Stratford Comm (YWCA Healthy Start Program)","address":"4100 Peyton Lane","city":"St. Louis","state":"MO","zip_code":"63120","description":"","phone":"314-389-9302","foodbank_partner":"St. Louis Area Foodbank","days_hours_open":"Monday-Friday 8:15AM-12PM, 1-4:15PM","verified_by_whom":"yes, SLU PH","cartodb_id":112,"created_at":"2014-04-02T15:53:17Z","updated_at":"2014-05-08T12:31:06Z"}},{"type":"Feature","geometry":{"type":"Point","coordinates":[-90.227998,38.599967]},"properties":{"name":"Salvation Army - Temple Corp","address":"2740 Arsenal","city":"St. Louis","state":"MO","zip_code":"63118","description":"","phone":"314-771-3460","foodbank_partner":"St. Louis Area Foodbank","days_hours_open":"Monday-Friday: 8:30-AM-12PM, 1-4:30PM","verified_by_whom":"","cartodb_id":113,"created_at":"2014-04-02T15:53:17Z","updated_at":"2014-05-08T12:31:27Z"}},{"type":"Feature","geometry":{"type":"Point","coordinates":[-90.245797,38.645646]},"properties":{"name":"Samaritan United Methodist Church","address":"4234 Washington Avenue ","city":"St. Louis","state":"MO","zip_code":"63108","description":"","phone":"314-652-5727","foodbank_partner":"St. Louis Area Foodbank","days_hours_open":"Thursday, 10AM-2PM","verified_by_whom":"yes, SLU PH","cartodb_id":115,"created_at":"2014-04-02T15:53:17Z","updated_at":"2014-05-08T12:33:38Z"}},{"type":"Feature","geometry":null,"properties":{"name":"Southside Wellness Center","address":"3017 Park Avenue","city":"St. Louis","state":"MO","zip_code":"63104","description":"","phone":"314-664-5024","foodbank_partner":"St. Louis Area Foodbank","days_hours_open":"Monday-Friday 8AM-5PM","verified_by_whom":"","cartodb_id":123,"created_at":"2014-04-02T15:53:17Z","updated_at":"2014-04-02T15:53:17Z"}},{"type":"Feature","geometry":{"type":"Point","coordinates":[-90.244582,38.696622]},"properties":{"name":"San Francisco Temple","address":"5341 Emerson Ave","city":"St. Louis","state":"MO","zip_code":"63120","description":"","phone":"314-383-3336, 314-385-5761","foodbank_partner":"Operation Food Search/St. Louis Area Foodbank","days_hours_open":"Thursday/Friday 9-11AM","verified_by_whom":"yes, SLU PH","cartodb_id":116,"created_at":"2014-04-02T15:53:17Z","updated_at":"2014-05-08T12:34:12Z"}},{"type":"Feature","geometry":{"type":"Point","coordinates":[-90.244478,38.635662]},"properties":{"name":"Savation Army ARC","address":"3949 Forest Park Ave","city":"St. Louis","state":"MO","zip_code":"63108","description":"residential meal program","phone":"314-535-0057","foodbank_partner":"Operation Food Search","days_hours_open":"","verified_by_whom":"","cartodb_id":117,"created_at":"2014-04-02T15:53:17Z","updated_at":"2014-05-08T12:34:36Z"}},{"type":"Feature","geometry":{"type":"Point","coordinates":[-90.27322,38.687968]},"properties":{"name":"New Direction Food Pantry","address":"5943 Natural Bridge Avenue","city":"St. Louis","state":"MO","zip_code":"63120","description":"","phone":"314-867-9850","foodbank_partner":"","days_hours_open":"1st and 3rd Saturday 10AM-12PM","verified_by_whom":"yes, SLU PH","cartodb_id":89,"created_at":"2014-04-02T15:53:17Z","updated_at":"2014-05-07T21:56:48Z"}},{"type":"Feature","geometry":{"type":"Point","coordinates":[-90.243398,38.573952]},"properties":{"name":"New Journey Baptist Church","address":"4555 Virginia Ave","city":"St. Louis","state":"MO","zip_code":"63111","description":"","phone":"314-832-2142","foodbank_partner":"Operation Food Search/St. Louis Area Foodbank","days_hours_open":"Tuesday/Wednesday, 2-3PM","verified_by_whom":"yes, SLU PH","cartodb_id":90,"created_at":"2014-04-02T15:53:17Z","updated_at":"2014-05-07T21:57:04Z"}},{"type":"Feature","geometry":{"type":"Point","coordinates":[-90.252329,38.742528]},"properties":{"name":"Northside SDA","address":"9001 Lucas and Hunt Road","city":"St. Louis","state":"MO","zip_code":"63136","description":"northside22.adventistchurchconnect.org","phone":"314-868-0707","foodbank_partner":"","days_hours_open":"","verified_by_whom":"yes, SLU PH","cartodb_id":92,"created_at":"2014-04-02T15:53:17Z","updated_at":"2014-05-07T21:57:40Z"}},{"type":"Feature","geometry":{"type":"Point","coordinates":[-90.227202,38.5891]},"properties":{"name":"Orphan Grain Train","address":"3636 Texas","city":"St. Louis","state":"MO","zip_code":"63118","description":"","phone":"314-846-5246","foodbank_partner":"St. Louis Area Foodbank","days_hours_open":"Tuesday 8AM-2PM","verified_by_whom":"","cartodb_id":94,"created_at":"2014-04-02T15:53:17Z","updated_at":"2014-05-07T21:58:12Z"}},{"type":"Feature","geometry":{"type":"Point","coordinates":[-90.219043,38.672328]},"properties":{"name":"Our Lady of Perpetual Help Food Pantry","address":"4335 Warne Ave","city":"St. Louis","state":"MO","zip_code":"63107","description":"helpstlouis.org","phone":"314-535-9794","foodbank_partner":"Operation Food Search/St. Louis Area Foodbank","days_hours_open":"Tuesday/Thursday/Saturday, 9AM-12PM","verified_by_whom":"yes, SLU PH","cartodb_id":95,"created_at":"2014-04-02T15:53:17Z","updated_at":"2014-05-07T21:58:26Z"}},{"type":"Feature","geometry":{"type":"Point","coordinates":[-90.232524,38.71105]},"properties":{"name":"Our Lady of the Holy Cross","address":"1022 Baden Ave","city":"St. Louis","state":"MO","zip_code":"63147","description":"","phone":"314-381-0323","foodbank_partner":"St. Louis Area Foodbank","days_hours_open":"Tuesday 7-8PM","verified_by_whom":"yes, SLU PH","cartodb_id":96,"created_at":"2014-04-02T15:53:17Z","updated_at":"2014-05-07T21:58:42Z"}},{"type":"Feature","geometry":{"type":"Point","coordinates":[-90.207686,38.636764]},"properties":{"name":"PCAC-City Services at Gateway","address":"2012 Dr. Martin Luther King Drive","city":"St. Louis","state":"MO","zip_code":"63106","description":"","phone":"314-269-5210","foodbank_partner":"Operation Food Search","days_hours_open":"","verified_by_whom":"","cartodb_id":98,"created_at":"2014-04-02T15:53:17Z","updated_at":"2014-05-07T21:59:18Z"}},{"type":"Feature","geometry":{"type":"Point","coordinates":[-90.289523,38.662928]},"properties":{"name":"PCAC-City Services at Mt. Carmel","address":"5935 Horton Place","city":"St. Louis","state":"MO","zip_code":"63112","description":"","phone":"314-862-6270","foodbank_partner":"Operation Food Search","days_hours_open":"","verified_by_whom":"","cartodb_id":99,"created_at":"2014-04-02T15:53:17Z","updated_at":"2014-05-07T21:59:31Z"}},{"type":"Feature","geometry":{"type":"Point","coordinates":[-90.251826,38.552823]},"properties":{"name":"PCAC-Southside City Services","address":"6827 South Broadway","city":"St. Louis","state":"MO","zip_code":"63111","description":"","phone":"314-269-5210","foodbank_partner":"Operation Food Search","days_hours_open":"","verified_by_whom":"","cartodb_id":100,"created_at":"2014-04-02T15:53:17Z","updated_at":"2014-05-07T21:59:49Z"}},{"type":"Feature","geometry":{"type":"Point","coordinates":[-90.252372,38.742525]},"properties":{"name":"Shalom Food Pantry","address":"8841 Lucas Hunt Road","city":"St. Louis","state":"MO","zip_code":"63136","description":"","phone":"314-388-1211","foodbank_partner":"Operation Food Search","days_hours_open":"","verified_by_whom":"","cartodb_id":119,"created_at":"2014-04-02T15:53:17Z","updated_at":"2014-05-08T12:35:42Z"}},{"type":"Feature","geometry":{"type":"Point","coordinates":[-90.220275,38.76535]},"properties":{"name":"Sharing Our Sources","address":"10636 Bellefontaine Road","city":"St. Louis","state":"MO","zip_code":"63137","description":"","phone":"314-869-7777","foodbank_partner":"St. Louis Area Foodbank","days_hours_open":"Tuesday 6-7PM","verified_by_whom":"yes, SLU PH","cartodb_id":121,"created_at":"2014-04-02T15:53:17Z","updated_at":"2014-05-08T12:38:34Z"}},{"type":"Feature","geometry":{"type":"Point","coordinates":[-90.277833,38.664512]},"properties":{"name":"Solomons Temple Church","address":"5569 Page Blvd","city":"St. Louis","state":"MO","zip_code":"63112","description":"","phone":"314-361-4460","foodbank_partner":"St. Louis Area Foodbank","days_hours_open":"Monday/Wednesday/Friday/Saturday: 9AM-2PM, Tuesday: 6-8:30PM, Sunday: 9AM-5PM","verified_by_whom":"yes, SLU PH","cartodb_id":122,"created_at":"2014-04-02T15:53:17Z","updated_at":"2014-05-08T12:39:12Z"}},{"type":"Feature","geometry":{"type":"Point","coordinates":[-90.214715,38.594608]},"properties":{"name":"St Agatha Food Pantry","address":"930 Withnell ","city":"St. Louis","state":"MO","zip_code":"63118","description":"","phone":"314-772-4491","foodbank_partner":"St. Louis Area Foodbank","days_hours_open":"Monday/Tuesday/Thursday 1-3PM","verified_by_whom":"","cartodb_id":124,"created_at":"2014-04-02T15:53:17Z","updated_at":"2014-05-08T12:39:48Z"}},{"type":"Feature","geometry":{"type":"Point","coordinates":[-90.225578,38.604282]},"properties":{"name":"St Francis De Sales Food Pantry","address":"2653 Ohio","city":"St. Louis","state":"MO","zip_code":"63118","description":"","phone":"314-799-5391","foodbank_partner":"St. Louis Area Foodbank","days_hours_open":"Saturday 9-11AM","verified_by_whom":"","cartodb_id":125,"created_at":"2014-04-02T15:53:17Z","updated_at":"2014-05-08T12:40:24Z"}},{"type":"Feature","geometry":{"type":"Point","coordinates":[-90.285733,38.678453]},"properties":{"name":"St. Augustine Wellston Center","address":"1705 Kienlen Ave","city":"St. Louis","state":"MO","zip_code":"63133","description":"","phone":"314-382-7158","foodbank_partner":"Operation Food Search/St. Louis Area Foodbank","days_hours_open":"Tuesday/Wednesday 9AM-12PM","verified_by_whom":"yes, SLU PH","cartodb_id":128,"created_at":"2014-04-02T15:53:17Z","updated_at":"2014-05-08T12:42:08Z"}},{"type":"Feature","geometry":{"type":"Point","coordinates":[-90.222291,38.636854]},"properties":{"name":"Salvation Army Harbor Light","address":"3010 Washington","city":"St. Louis","state":"MO","zip_code":"63103","description":"meal program","phone":"314-286-3200","foodbank_partner":"Operation Food Search","days_hours_open":"","verified_by_whom":"","cartodb_id":114,"created_at":"2014-04-02T15:53:17Z","updated_at":"2014-05-08T12:32:20Z"}},{"type":"Feature","geometry":{"type":"Point","coordinates":[-90.194738,38.650385]},"properties":{"name":"Jackson Park Senior Apartments","address":"1220 Warren","city":"St. Louis","state":"MO","zip_code":"63106","description":"for residents ","phone":"314-436-0733","foodbank_partner":"Operation Food Search","days_hours_open":"","verified_by_whom":"","cartodb_id":64,"created_at":"2014-04-02T15:53:17Z","updated_at":"2014-05-01T21:47:57Z"}},{"type":"Feature","geometry":{"type":"Point","coordinates":[-90.210852,38.6779]},"properties":{"name":"St. James Center","address":"1455 College Ave","city":"St. Louis","state":"MO","zip_code":"63107","description":"","phone":"314-383-1733","foodbank_partner":"St. Louis Area Foodbank","days_hours_open":"Monday/Wednesday, 11AM-1PM","verified_by_whom":"","cartodb_id":130,"created_at":"2014-04-02T15:53:17Z","updated_at":"2014-05-07T22:23:49Z"}},{"type":"Feature","geometry":{"type":"Point","coordinates":[-90.236833,38.645156]},"properties":{"name":"Urban League of Metro St. Louis","address":"935 N Vandeventer Ave","city":"St. Louis","state":"MO","zip_code":"63108","description":"ulstl.org","phone":"314-615-3604","foodbank_partner":"","days_hours_open":"","verified_by_whom":"yes, SLU PH","cartodb_id":170,"created_at":"2014-04-02T15:53:17Z","updated_at":"2014-05-07T22:02:12Z"}},{"type":"Feature","geometry":{"type":"Point","coordinates":[-90.245409,38.726052]},"properties":{"name":"Urban League Metro Community Outreach","address":"8960 Jennings Station Road","city":"St. Louis","state":"MO","zip_code":"63136","description":"","phone":"314-388-9840","foodbank_partner":"Operation Food Search/St. Louis Area Foodbank","days_hours_open":"Tuesday-Thursday 9AM-12PM, 2-4PM","verified_by_whom":"yes, SLU PH","cartodb_id":169,"created_at":"2014-04-02T15:53:17Z","updated_at":"2014-05-07T22:02:28Z"}},{"type":"Feature","geometry":{"type":"Point","coordinates":[-90.232665,38.641286]},"properties":{"name":"Urban League - City Division","address":"3701 Grandel Square ","city":"St. Louis","state":"MO","zip_code":"63108","description":"","phone":"314-615-3610","foodbank_partner":"Operation Food Search/St. Louis Area Foodbank","days_hours_open":"Monday-Friday, 8:30AM-5PM","verified_by_whom":"","cartodb_id":168,"created_at":"2014-04-02T15:53:17Z","updated_at":"2014-05-07T22:02:40Z"}},{"type":"Feature","geometry":{"type":"Point","coordinates":[-90.210531,38.644896]},"properties":{"name":"True Grace Food Pantry","address":"2319 Cass Avenue","city":"St. Louis","state":"MO","zip_code":"63106","description":"","phone":"314-868-4485","foodbank_partner":"Operation Food Search","days_hours_open":"","verified_by_whom":"","cartodb_id":166,"created_at":"2014-04-02T15:53:17Z","updated_at":"2014-05-07T22:03:49Z"}},{"type":"Feature","geometry":{"type":"Point","coordinates":[-90.309604,38.654758]},"properties":{"name":"Trinity Presbyterian Church","address":"6800 Washington Ave","city":"St. Louis","state":"MO","zip_code":"63130","description":"trinityucity.org","phone":"314-725-3840","foodbank_partner":"St. Louis Area Foodbank","days_hours_open":"Wednesday 1-3PM","verified_by_whom":"yes, SLU PH","cartodb_id":165,"created_at":"2014-04-02T15:53:17Z","updated_at":"2014-05-07T22:04:08Z"}},{"type":"Feature","geometry":{"type":"Point","coordinates":[-90.230882,38.711893]},"properties":{"name":"Trinity Full Gospel Ministries","address":"8229 N Broadway","city":"St. Louis","state":"MO","zip_code":"63147","description":"","phone":"314-389-8777","foodbank_partner":"","days_hours_open":"","verified_by_whom":"yes, SLU PH","cartodb_id":164,"created_at":"2014-04-02T15:53:17Z","updated_at":"2014-05-07T22:04:22Z"}},{"type":"Feature","geometry":{"type":"Point","coordinates":[-90.230962,38.639238]},"properties":{"name":"Third Baptist Church","address":"620 N Grand Blvd","city":"St. Louis","state":"MO","zip_code":"63103","description":"","phone":"314-533-7340","foodbank_partner":"St. Louis Area Foodbank","days_hours_open":"3rd Saturday, 9-11AM","verified_by_whom":"","cartodb_id":161,"created_at":"2014-04-02T15:53:17Z","updated_at":"2014-05-07T22:05:11Z"}},{"type":"Feature","geometry":{"type":"Point","coordinates":[-90.332982,38.68391]},"properties":{"name":"The Village Church of St. Louis","address":"8145 Page Ave","city":"St. Louis","state":"MO","zip_code":"63130","description":"","phone":"314-428-2558","foodbank_partner":"","days_hours_open":"","verified_by_whom":"yes, SLU PH","cartodb_id":160,"created_at":"2014-04-02T15:53:17Z","updated_at":"2014-05-07T22:05:35Z"}},{"type":"Feature","geometry":{"type":"Point","coordinates":[-90.203813,38.630836]},"properties":{"name":"The Bridge","address":"1610 Olive","city":"St. Louis","state":"MO","zip_code":"63103","description":"Daily meal program","phone":"314-421-3136","foodbank_partner":"Operation Food Search","days_hours_open":"Breakfast: 7-9:30AM, Lunch: 12-12:30PM","verified_by_whom":"","cartodb_id":159,"created_at":"2014-04-02T15:53:17Z","updated_at":"2014-05-07T22:05:53Z"}},{"type":"Feature","geometry":{"type":"Point","coordinates":[-90.193399,38.641801]},"properties":{"name":"Sunshine Ministries, Inc.","address":"1520 N. 13th Street","city":"St. Louis","state":"MO","zip_code":"63106","description":"sunshineministries.org","phone":"314-231-8209","foodbank_partner":"Operation Food Search","days_hours_open":"","verified_by_whom":"yes, SLU PH","cartodb_id":158,"created_at":"2014-04-02T15:53:17Z","updated_at":"2014-05-07T22:06:09Z"}},{"type":"Feature","geometry":{"type":"Point","coordinates":[-90.197829,38.653912]},"properties":{"name":"Stepping Into The Light","address":"1402 Hebert","city":"St. Louis","state":"MO","zip_code":"63107","description":"meal program","phone":"314-231-5175","foodbank_partner":"Operation Food Search","days_hours_open":"","verified_by_whom":"","cartodb_id":157,"created_at":"2014-04-02T15:53:17Z","updated_at":"2014-05-07T22:06:25Z"}},{"type":"Feature","geometry":{"type":"Point","coordinates":[-90.229558,38.600937]},"properties":{"name":"St. Wenceslaus Food Pantry","address":"3014 Oregon Ave","city":"St. Louis","state":"MO","zip_code":"63118","description":"","phone":"314-865-1020","foodbank_partner":"Operation Food Search/St. Louis Area Foodbank","days_hours_open":"3rd Monday 9:30-11:30AM","verified_by_whom":"","cartodb_id":155,"created_at":"2014-04-02T15:53:17Z","updated_at":"2014-05-07T22:06:54Z"}},{"type":"Feature","geometry":{"type":"Point","coordinates":[-90.201821,38.613101]},"properties":{"name":"St. Vincent Depaul Church","address":"1408 S. 10th Street","city":"St. Louis","state":"MO","zip_code":"63104","description":"","phone":"314-231-9328","foodbank_partner":"St. Louis Area Foodbank","days_hours_open":"Tuesday/Thursday, 9-3PM","verified_by_whom":"","cartodb_id":154,"created_at":"2014-04-02T15:53:17Z","updated_at":"2014-05-07T22:15:31Z"}},{"type":"Feature","geometry":{"type":"Point","coordinates":[-90.261427,38.550929]},"properties":{"name":"St. Trinity Lutheran Church","address":"517 Koeln","city":"St. Louis","state":"MO","zip_code":"63111","description":"","phone":"314-353-3276","foodbank_partner":"Operation Food Search/St. Louis Area Foodbank","days_hours_open":"Wednesday/Saturday, 9-11AM","verified_by_whom":"","cartodb_id":153,"created_at":"2014-04-02T15:53:17Z","updated_at":"2014-05-07T22:15:44Z"}},{"type":"Feature","geometry":{"type":"Point","coordinates":[-90.243448,38.675737]},"properties":{"name":"St. Peter's AME Food Pantry","address":"4730 Margaretta Ave","city":"St. Louis","state":"MO","zip_code":"63115","description":"","phone":"314-381-3345","foodbank_partner":"St. Louis Area Foodbank","days_hours_open":"October-April: Tuesdays - 10AM-1PM, May-September: Tuesdays - 10AM-1PM, Thursdays - 4-7PM","verified_by_whom":"yes, SLU PH","cartodb_id":151,"created_at":"2014-04-02T15:53:17Z","updated_at":"2014-05-07T22:16:16Z"}},{"type":"Feature","geometry":{"type":"Point","coordinates":[-90.286227,38.667687]},"properties":{"name":"St. Paul AME Church","address":"1260 Hamilton Avenue","city":"St. Louis","state":"MO","zip_code":"63112","description":"","phone":"314-385-8900","foodbank_partner":"St. Louis Area Foodbank","days_hours_open":"2nd and 4th Tuesdays 9:30AM-12:30PM","verified_by_whom":"yes, SLU PH","cartodb_id":150,"created_at":"2014-04-02T15:53:17Z","updated_at":"2014-05-07T22:16:30Z"}},{"type":"Feature","geometry":{"type":"Point","coordinates":[-90.204668,38.634175]},"properties":{"name":"St. Nicholas Church","address":"701 North 18th Street","city":"St. Louis","state":"MO","zip_code":"63103","description":"","phone":"636-532-1095","foodbank_partner":"St. Louis Area Foodbank","days_hours_open":"Monday, 12-1PM","verified_by_whom":"","cartodb_id":148,"created_at":"2014-04-02T15:53:17Z","updated_at":"2014-05-07T22:17:21Z"}},{"type":"Feature","geometry":{"type":"Point","coordinates":[-90.249659,38.700006]},"properties":{"name":"St. Matthew's Pantry","address":"5402 Wren Ave","city":"St. Louis","state":"MO","zip_code":"63120","description":"","phone":"314-261-775","foodbank_partner":"St. Louis Area Foodbank","days_hours_open":"Wednesday 9AM-12PM","verified_by_whom":"yes, SLU PH","cartodb_id":147,"created_at":"2014-04-02T15:53:17Z","updated_at":"2014-05-07T22:17:38Z"}},{"type":"Feature","geometry":{"type":"Point","coordinates":[-90.245505,38.611687]},"properties":{"name":"St. Margaret of Scotland - SVDP","address":"3854 Flad Avenue","city":"St. Louis","state":"MO","zip_code":"63110","description":"","phone":"314-772-2219","foodbank_partner":"St. Louis Area Foodbank","days_hours_open":"Call for information","verified_by_whom":"","cartodb_id":146,"created_at":"2014-04-02T15:53:17Z","updated_at":"2014-05-07T22:17:51Z"}},{"type":"Feature","geometry":{"type":"Point","coordinates":[-90.229135,38.644123]},"properties":{"name":"St. Luke Memorial Baptist","address":"3623 Finney Avenue","city":"St. Louis","state":"MO","zip_code":"63113","description":"","phone":"314-531-1978","foodbank_partner":"St. Louis Area Foodbank","days_hours_open":"4th Saturday, 9AM-12PM","verified_by_whom":"yes, SLU PH","cartodb_id":144,"created_at":"2014-04-02T15:53:17Z","updated_at":"2014-05-07T22:18:53Z"}},{"type":"Feature","geometry":{"type":"Point","coordinates":[-90.363094,38.635473]},"properties":{"name":"St. Louis Youth Build","address":"93 North Oaks Plaza","city":"St. Louis","state":"MO","zip_code":"63121","description":"client meal program","phone":"314-486-5228","foodbank_partner":"Operation Food Search","days_hours_open":"","verified_by_whom":"","cartodb_id":143,"created_at":"2014-04-02T15:53:17Z","updated_at":"2014-05-07T22:19:08Z"}},{"type":"Feature","geometry":{"type":"Point","coordinates":[-90.267921,38.669066]},"properties":{"name":"St. Louis Outreach - GCM","address":"5356 Cote Brilliante","city":"St. Louis","state":"MO","zip_code":"63112","description":"","phone":"314-229-9422","foodbank_partner":"St. Louis Area Foodbank","days_hours_open":"Tuesday/Thursday, 11AM-1PM","verified_by_whom":"yes, SLU PH","cartodb_id":142,"created_at":"2014-04-02T15:53:17Z","updated_at":"2014-05-07T22:19:20Z"}},{"type":"Feature","geometry":{"type":"Point","coordinates":[-90.207597,38.631552]},"properties":{"name":"St. Louis Empowerment Center","address":"1908 Olive St.","city":"St. Louis ","state":"MO","zip_code":"63103","description":"meal program","phone":"314-652-6100","foodbank_partner":"Operation Food Search","days_hours_open":"","verified_by_whom":"","cartodb_id":141,"created_at":"2014-04-02T15:53:17Z","updated_at":"2014-05-07T22:19:33Z"}},{"type":"Feature","geometry":{"type":"Point","coordinates":[-90.306646,38.674651]},"properties":{"name":"St. Louis Bible Way","address":"6719 Page Ave","city":"St. Louis","state":"MO","zip_code":"63133","description":"","phone":"314-725-5257","foodbank_partner":"","days_hours_open":"","verified_by_whom":"yes, SLU PH","cartodb_id":139,"created_at":"2014-04-02T15:53:17Z","updated_at":"2014-05-07T22:20:01Z"}},{"type":"Feature","geometry":{"type":"Point","coordinates":[-90.250777,38.557704]},"properties":{"name":"St. Joseph's Center","address":"6408 Michigan Ave","city":"St. Louis","state":"MO","zip_code":"63111","description":"","phone":"314-752-6339","foodbank_partner":"St. Louis Area Foodbank","days_hours_open":"Monday/Wednesday/Friday, 8AM-12PM","verified_by_whom":"yes, SLU PH","cartodb_id":137,"created_at":"2014-04-02T15:53:17Z","updated_at":"2014-05-07T22:20:17Z"}},{"type":"Feature","geometry":{"type":"Point","coordinates":[-90.293154,38.688109]},"properties":{"name":"St. Joseph MBC","address":"6905 St. Louis Avenue","city":"St. Louis","state":"MO","zip_code":"63121","description":"","phone":"314-382-8833","foodbank_partner":"Operation Food Search","days_hours_open":"","verified_by_whom":"","cartodb_id":136,"created_at":"2014-04-02T15:53:17Z","updated_at":"2014-05-07T22:20:35Z"}},{"type":"Feature","geometry":{"type":"Point","coordinates":[-90.213362,38.665901]},"properties":{"name":"St. John's UCC","address":"4138 N Grand Blvd","city":"St. Louis","state":"MO","zip_code":"63107","description":"","phone":"314-533-8668","foodbank_partner":"St. Louis Area Foodbank","days_hours_open":"Monday/Wednesday/Friday, 8:30-11AM","verified_by_whom":"yes, SLU PH","cartodb_id":135,"created_at":"2014-04-02T15:53:17Z","updated_at":"2014-05-07T22:20:47Z"}},{"type":"Feature","geometry":{"type":"Point","coordinates":[-90.259228,38.66575]},"properties":{"name":"St. James MBC Pantry","address":"5420 Cote Brilliante Avenue","city":"St. Louis","state":"MO","zip_code":"63112","description":"","phone":"314-367-0345","foodbank_partner":"Operation Food Search","days_hours_open":"","verified_by_whom":"","cartodb_id":132,"created_at":"2014-04-02T15:53:17Z","updated_at":"2014-05-07T22:21:33Z"}},{"type":"Feature","geometry":{"type":"Point","coordinates":[-90.270245,38.66969]},"properties":{"name":"St. James MB Church","address":"1644 Semple Avenue","city":"St. Louis","state":"MO","zip_code":"63112","description":"","phone":"314-942-2005","foodbank_partner":"St. Louis Area Foodbank","days_hours_open":"2nd and 4th Saturdays 11AM-12:30PM","verified_by_whom":"yes, SLU PH","cartodb_id":131,"created_at":"2014-04-02T15:53:17Z","updated_at":"2014-05-07T22:21:53Z"}},{"type":"Feature","geometry":{"type":"Point","coordinates":[-90.255831,38.647675]},"properties":{"name":"Second Presbyterian Church","address":"4501 Westminster Place","city":"St. Louis","state":"MO","zip_code":"63108","description":"","phone":"314-367-0366","foodbank_partner":"St. Louis Area Foodbank","days_hours_open":"Saturday, 10-11AM","verified_by_whom":"yes, SLU PH","cartodb_id":118,"created_at":"2014-04-02T15:53:17Z","updated_at":"2014-05-08T12:35:05Z"}},{"type":"Feature","geometry":{"type":"Point","coordinates":[38.643391,38.643391]},"properties":{"name":"Zion Temple Food Pantry","address":"1315 Elliot Avenue","city":"St. Louis","state":"MO","zip_code":"63106","description":"","phone":"314-652-9136","foodbank_partner":"Operation Food Search/St. Louis Area Foodbank","days_hours_open":"Saturday 10AM-2PM, 2nd Sunday 10AM-1PM","verified_by_whom":"yes, SLU PH","cartodb_id":177,"created_at":"2014-04-02T15:53:17Z","updated_at":"2014-05-07T22:00:38Z"}},{"type":"Feature","geometry":{"type":"Point","coordinates":[-90.240858,38.612011]},"properties":{"name":"Mt. Olive Lutheran Church - Isaiah 58 Food Pantry","address":"2149 South Grand","city":"St. Louis","state":"MO","zip_code":"63104","description":"","phone":"314-776-1410","foodbank_partner":"St. Louis Area Foodbank","days_hours_open":"Wednesday & Thursday, 9-11AM. Requires proof of residence.","verified_by_whom":"yes, GoodMap","cartodb_id":62,"created_at":"2014-04-02T15:53:17Z","updated_at":"2014-05-01T21:45:35Z"}},{"type":"Feature","geometry":{"type":"Point","coordinates":[-90.228094,38.644124]},"properties":{"name":"Wilhelmina Hardin Food Pantry","address":"1118 N. Grand Blvd","city":"St. Louis","state":"MO","zip_code":"63106","description":"","phone":"","foodbank_partner":"St. Louis Area Foodbank","days_hours_open":"Tuesday/Thursday, 10-2PM","verified_by_whom":"","cartodb_id":174,"created_at":"2014-04-02T15:53:17Z","updated_at":"2014-05-07T22:01:22Z"}},{"type":"Feature","geometry":{"type":"Point","coordinates":[-90.256863,38.671025]},"properties":{"name":"All Saints Episcopal","address":"5010 Terry Avenue","city":"St. Louis","state":"MO","zip_code":"63115","description":"Food bank/pantry","phone":"314-367-2314","foodbank_partner":"St. Louis Area Foodbank","days_hours_open":"Saturday, 9-11AM","verified_by_whom":"yes, SLU PH","cartodb_id":4,"created_at":"2014-04-02T15:53:17Z","updated_at":"2014-05-01T17:30:35Z"}},{"type":"Feature","geometry":{"type":"Point","coordinates":[-90.20672,38.652024]},"properties":{"name":"St. John's Community Service Ministry","address":"2240 St. Louis Avenue","city":"St. Louis","state":"MO","zip_code":"63106","description":"","phone":"314-533-8668","foodbank_partner":"Operation Food Search","days_hours_open":"Monday and Friday 8:30-10:30AM","verified_by_whom":"yes, GoodMap","cartodb_id":134,"created_at":"2014-04-02T15:53:17Z","updated_at":"2014-05-07T22:21:04Z"}},{"type":"Feature","geometry":{"type":"Point","coordinates":[-90.204318,38.648325]},"properties":{"name":"Zion Lutheran Church","address":"2500 N 21st Street","city":"St. Louis","state":"MO","zip_code":"63106","description":"","phone":"314-231-0382","foodbank_partner":"St. Louis Area Foodbank, Operation Food Search","days_hours_open":"Monday, 9-1PM","verified_by_whom":"yes, SLU PH","cartodb_id":176,"created_at":"2014-04-02T15:53:17Z","updated_at":"2014-05-07T22:00:51Z"}},{"type":"Feature","geometry":{"type":"Point","coordinates":[-90.218085,38.636009]},"properties":{"name":"Jamison Memorial","address":"2809 Washington","city":"St. Louis","state":"MO","zip_code":"63103","description":"","phone":"314-531-9691","foodbank_partner":"St. Louis Area Foodbank","days_hours_open":"Wednesday, 12PM","verified_by_whom":"","cartodb_id":65,"created_at":"2014-04-02T15:53:17Z","updated_at":"2014-05-01T21:49:35Z"}},{"type":"Feature","geometry":{"type":"Point","coordinates":[-90.303605,38.659145]},"properties":{"name":"All Saints SVDP","address":"6419 Clemens Avenue","city":"St. Louis","state":"MO","zip_code":"63130","description":"","phone":"314-289-6108 x2244","foodbank_partner":"St. Louis Area Foodbank","days_hours_open":"Call for information","verified_by_whom":"yes, SLU PH","cartodb_id":5,"created_at":"2014-04-02T15:53:17Z","updated_at":"2014-05-01T17:31:03Z"}},{"type":"Feature","geometry":{"type":"Point","coordinates":[-90.232051,38.618664]},"properties":{"name":"Almost Home","address":"3200 Saint Vincent","city":"St. Louis","state":"MO","zip_code":"63104","description":"residential meal program","phone":"314-771-4663","foodbank_partner":"Operation Food Search","days_hours_open":"","verified_by_whom":"","cartodb_id":6,"created_at":"2014-04-02T15:53:17Z","updated_at":"2014-05-01T17:31:25Z"}},{"type":"Feature","geometry":{"type":"Point","coordinates":[-90.282616,38.560742]},"properties":{"name":"Amazing Grace Fellowship","address":"7515 Morganford Road","city":"St. Louis ","state":"MO","zip_code":"63116","description":"","phone":"314-649-7322","foodbank_partner":"St. Louis Area Foodbank","days_hours_open":"1st and 3rd Tuesday/Saturday 10AM-1PM","verified_by_whom":"","cartodb_id":7,"created_at":"2014-04-02T15:53:17Z","updated_at":"2014-05-01T17:31:48Z"}},{"type":"Feature","geometry":{"type":"Point","coordinates":[-90.224925,38.597883]},"properties":{"name":"Love and Care Youth Center","address":"3137 South Jefferson","city":"St. Louis","state":"MO","zip_code":"63118","description":"","phone":"314-776-1655","foodbank_partner":"St. Louis Area Foodbank","days_hours_open":"Friday 12:30PM. Requires ID with address.","verified_by_whom":"yes, GoodMap","cartodb_id":78,"created_at":"2014-04-02T15:53:17Z","updated_at":"2014-05-07T21:54:13Z"}},{"type":"Feature","geometry":{"type":"Point","coordinates":[-90.202737,38.662975]},"properties":{"name":"Anointed Hands","address":"3914 19th Street","city":"St. Louis","state":"MO","zip_code":"63107","description":"","phone":"314-971-5370","foodbank_partner":"Operation Food Search/St. Louis Area Foodbank","days_hours_open":"1st and 3rd Tuesdays, 11AM-1PM","verified_by_whom":"","cartodb_id":8,"created_at":"2014-04-02T15:53:17Z","updated_at":"2014-05-01T17:32:07Z"}},{"type":"Feature","geometry":{"type":"Point","coordinates":[-90.224599,38.674403]},"properties":{"name":"Word of Life","address":"4131 E. Carter","city":"St. Louis","state":"MO","zip_code":"63115","description":"","phone":"314-533-3849","foodbank_partner":"Operation Food Search","days_hours_open":"","verified_by_whom":"","cartodb_id":175,"created_at":"2014-04-02T15:53:17Z","updated_at":"2014-05-07T22:01:06Z"}},{"type":"Feature","geometry":{"type":"Point","coordinates":[-90.287156,38.70863]},"properties":{"name":"Ascension Episcopal Church","address":"4520 Lucas and Hunt Road","city":"St. Louis","state":"MO","zip_code":"63121","description":"","phone":"","foodbank_partner":"","days_hours_open":"","verified_by_whom":"","cartodb_id":9,"created_at":"2014-04-02T15:53:17Z","updated_at":"2014-05-01T17:34:37Z"}},{"type":"Feature","geometry":{"type":"Point","coordinates":[-90.211087,38.748895]},"properties":{"name":"Zion Travelers","address":"10014 Diamond Drive","city":"St. Louis","state":"MO","zip_code":"63137","description":"","phone":"314-868-0059","foodbank_partner":"St. Louis Area Foodbank","days_hours_open":"Saturday 8AM-12PM","verified_by_whom":"yes, SLU PH","cartodb_id":178,"created_at":"2014-04-02T15:53:17Z","updated_at":"2014-05-07T22:00:13Z"}},{"type":"Feature","geometry":{"type":"Point","coordinates":[-90.278338,38.58114]},"properties":{"name":"Baptist Ministries South Center","address":"5248 S. Kingshighway","city":"St. Louis","state":"MO","zip_code":"63109","description":"Food bank/pantry","phone":"314-353-1005","foodbank_partner":"Operation Food Search/St. Louis Area Foodbank","days_hours_open":"Tuesday, Friday, 9-11:30AM","verified_by_whom":"yes, SLU PH","cartodb_id":10,"created_at":"2014-04-02T15:53:17Z","updated_at":"2014-05-01T17:35:54Z"}},{"type":"Feature","geometry":{"type":"Point","coordinates":[-90.236965,38.676693]},"properties":{"name":"Wesley House Food Pantry","address":"4507 Lee Ave","city":"St. Louis","state":"MO","zip_code":"63115","description":"http://wesleyhousestl.org/","phone":"314-385-1000","foodbank_partner":"Operation Food Search/St. Louis Area Foodbank","days_hours_open":"3rd Thursday, 1-3PM","verified_by_whom":"yes, SLU PH","cartodb_id":172,"created_at":"2014-04-02T15:53:17Z","updated_at":"2014-05-07T22:01:37Z"}},{"type":"Feature","geometry":{"type":"Point","coordinates":[-90.276471,38.661152]},"properties":{"name":"A New Cornerstone","address":"5436 Bartmer Ave","city":"St. Louis","state":"MO","zip_code":"63112","description":"","phone":"314-540-5491","foodbank_partner":"St. Louis Area Foodbank","days_hours_open":"Wednesday/Friday: 11AM-2PM, Saturday: 9AM-3PM","verified_by_whom":"yes, SLU PH","cartodb_id":179,"created_at":"2014-05-01T16:29:54Z","updated_at":"2014-05-01T16:32:58Z"}},{"type":"Feature","geometry":{"type":"Point","coordinates":[-90.234592,38.671407]},"properties":{"name":"St. Louis Dream Center","address":"4324 Margaretta Ave","city":"St. Louis","state":"MO","zip_code":"63115","description":"stldreamcenter.org","phone":"314-381-0700","foodbank_partner":"Operation Food Search/St. Louis Area Foodbank","days_hours_open":"Monday/Wednesday/Friday: 10AM-12PM, 1-3PM, Saturday: 11AM-1pm, Sunday 10:30-11AM, 12-12:30PM","verified_by_whom":"yes, SLU PH","cartodb_id":140,"created_at":"2014-04-02T15:53:17Z","updated_at":"2014-05-07T22:19:46Z"}},{"type":"Feature","geometry":{"type":"Point","coordinates":[-90.272609,38.652518]},"properties":{"name":"Agape in Motion","address":"5227 Delmar Blvd","city":"St. Louis","state":"MO","zip_code":"63108","description":"","phone":"314-361-2727","foodbank_partner":"St. Louis Area Foodbank","days_hours_open":"Tuesday-Thursday 10AM-3PM","verified_by_whom":"yes, SLU PH","cartodb_id":180,"created_at":"2014-05-01T16:47:56Z","updated_at":"2014-05-01T16:49:26Z"}},{"type":"Feature","geometry":{"type":"Point","coordinates":[-90.302502,38.664784]},"properties":{"name":"Agape SDA","address":"6501 Bartmer Ave","city":"St. Louis","state":"MO","zip_code":"63130","description":"","phone":"","foodbank_partner":"","days_hours_open":"","verified_by_whom":"yes, SLU PH","cartodb_id":3,"created_at":"2014-04-02T15:53:17Z","updated_at":"2014-05-01T17:30:10Z"}},{"type":"Feature","geometry":{"type":"Point","coordinates":[-90.273784,38.68036]},"properties":{"name":"Barret Brothers Park","address":"3001 Goodfellow Avenue","city":"St. Louis","state":"MO","zip_code":"63120","description":"Summer Meal Site: July 29-August 2, August 5-9","phone":"","foodbank_partner":"Operation Food Search","days_hours_open":"","verified_by_whom":"","cartodb_id":11,"created_at":"2014-04-02T15:53:17Z","updated_at":"2014-05-01T17:36:36Z"}},{"type":"Feature","geometry":{"type":"Point","coordinates":[-90.242552,38.597256]},"properties":{"name":"St. Pius V-SVDP","address":"3540 Utah Street","city":"St. Louis","state":"MO","zip_code":"63118","description":"","phone":"314-772-1525","foodbank_partner":"St. Louis Area Foodbank","days_hours_open":"Tuesday/Wednesday/Friday 2-3:30PM","verified_by_whom":"","cartodb_id":152,"created_at":"2014-04-02T15:53:17Z","updated_at":"2014-05-07T22:16:02Z"}},{"type":"Feature","geometry":{"type":"Point","coordinates":[-90.272151,38.660066]},"properties":{"name":"Berean Seventh-Day Adventist Church","address":"1244 Union Boulevard","city":"St. Louis","state":"MO","zip_code":"63113","description":"http://berean28.adventistchurchconnect.org/ ","phone":"314-361-6446","foodbank_partner":"Operation Food Search/St. Louis Area Foodbank","days_hours_open":"Tuesday, 1-2PM","verified_by_whom":"yes, SLU PH","cartodb_id":12,"created_at":"2014-04-02T15:53:17Z","updated_at":"2014-05-01T17:37:39Z"}},{"type":"Feature","geometry":{"type":"Point","coordinates":[-90.195966,38.633433]},"properties":{"name":"St. Patrick Center","address":"800 N. Tucker","city":"St. Louis","state":"MO","zip_code":"63101","description":"Daily meal program","phone":"314-804-0700","foodbank_partner":"Operation Food Search","days_hours_open":"","verified_by_whom":"","cartodb_id":149,"created_at":"2014-04-02T15:53:17Z","updated_at":"2014-05-07T22:17:02Z"}},{"type":"Feature","geometry":{"type":"Point","coordinates":[-90.305923,38.681876]},"properties":{"name":"Beyond Housing - Pagedale","address":"1404 Ferguson Ave","city":"St. Louis","state":"MO","zip_code":"63133","description":"beyondhousing.org","phone":"314-862-0639","foodbank_partner":"","days_hours_open":"","verified_by_whom":"yes, SLU PH","cartodb_id":13,"created_at":"2014-04-02T15:53:17Z","updated_at":"2014-05-01T17:38:21Z"}},{"type":"Feature","geometry":{"type":"Point","coordinates":[-90.231609,38.616117]},"properties":{"name":"St. Margaret of Scotland - Gavin Outreach Center","address":"3139 Lafayette Ave","city":"St. Louis","state":"MO","zip_code":"63110","description":"","phone":"314-771-9411","foodbank_partner":"St. Louis Area Foodbank","days_hours_open":"Monday/Wednesday/Thursday, 10AM-12PM","verified_by_whom":"yes, SLU PH","cartodb_id":145,"created_at":"2014-04-02T15:53:17Z","updated_at":"2014-05-07T22:18:06Z"}},{"type":"Feature","geometry":{"type":"Point","coordinates":[-90.191381,38.768989]},"properties":{"name":"Blessed Hope Bible Church","address":"825 Dunn Road","city":"St. Louis","state":"MO","zip_code":"63138","description":"","phone":"314-837-7486","foodbank_partner":"Operation Food Search","days_hours_open":"","verified_by_whom":"","cartodb_id":14,"created_at":"2014-04-02T15:53:17Z","updated_at":"2014-05-01T17:38:49Z"}},{"type":"Feature","geometry":{"type":"Point","coordinates":[-90.259228,38.66575]},"properties":{"name":"St. John Community Improvement Corporation","address":"1908 N Kingshighway Blvd","city":"St. Louis","state":"MO","zip_code":"63113","description":"","phone":"314-361-8236","foodbank_partner":"St. Louis Area Foodbank","days_hours_open":"Monday, 9-11AM","verified_by_whom":"yes, SLU PH","cartodb_id":133,"created_at":"2014-04-02T15:53:17Z","updated_at":"2014-05-07T22:21:18Z"}},{"type":"Feature","geometry":{"type":"Point","coordinates":[-90.239634,38.681106]},"properties":{"name":"St. Elizabeth Englebert SVDP","address":"4330 Shreve Avenue","city":"St. Louis","state":"MO","zip_code":"63115","description":"","phone":"314-381-1900","foodbank_partner":"St. Louis Area Foodbank","days_hours_open":"Tuesday/Thursday 9AM-12PM","verified_by_whom":"yes, SLU PH","cartodb_id":129,"created_at":"2014-04-02T15:53:17Z","updated_at":"2014-05-07T22:24:02Z"}},{"type":"Feature","geometry":{"type":"Point","coordinates":[-90.261009,38.629264]},"properties":{"name":"Shalom House","address":"1040 S. Taylor Drive","city":"St. Louis","state":"MO","zip_code":"63110","description":"residential meal program","phone":"314-534-1010","foodbank_partner":"Operation Food Search","days_hours_open":"","verified_by_whom":"","cartodb_id":120,"created_at":"2014-04-02T15:53:17Z","updated_at":"2014-05-08T12:38:01Z"}},{"type":"Feature","geometry":{"type":"Point","coordinates":[-90.220941,38.599647]},"properties":{"name":"Joint Neighborhood Ministries","address":"2911 McNair Avenue","city":"St. Louis","state":"MO","zip_code":"63118","description":"","phone":"314-771-3987","foodbank_partner":"Operation Food Search, St. Louis Area Foodbank","days_hours_open":"Monday, Wednesday, Friday 9:30AM-12PM","verified_by_whom":"","cartodb_id":66,"created_at":"2014-04-02T15:53:17Z","updated_at":"2014-05-01T21:53:55Z"}},{"type":"Feature","geometry":{"type":"Point","coordinates":[-90.28618,38.673732]},"properties":{"name":"Bostick Temple","address":"1448 Hodiamont Avenue","city":"St. Louis","state":"MO","zip_code":"63112","description":"","phone":"314-261-3766","foodbank_partner":"Operation Food Search","days_hours_open":"","verified_by_whom":"","cartodb_id":16,"created_at":"2014-04-02T15:53:17Z","updated_at":"2014-05-01T17:43:31Z"}},{"type":"Feature","geometry":{"type":"Point","coordinates":[-90.239541,38.579537]},"properties":{"name":"St. Anthony's Food Pantry","address":"3140 Meramec Street","city":"St. Louis","state":"MO","zip_code":"63118","description":"","phone":"314-352-1460","foodbank_partner":"Operation Food Search/St. Louis Area Foodbank","days_hours_open":"Monday/Thursday: 10AM-12PM, Wednesday: 4-6PM","verified_by_whom":"","cartodb_id":126,"created_at":"2014-04-02T15:53:17Z","updated_at":"2014-05-08T12:41:01Z"}},{"type":"Feature","geometry":{"type":"Point","coordinates":[-90.204995,38.637354]},"properties":{"name":"Gateway 180","address":"1000 North 19th Street","city":"St. Louis","state":"MO","zip_code":"63106","description":"residential meal program, gateway180.org","phone":"314-231-1515","foodbank_partner":"Operation Food Search","days_hours_open":"","verified_by_whom":"","cartodb_id":45,"created_at":"2014-04-02T15:53:17Z","updated_at":"2014-05-01T18:49:46Z"}},{"type":"Feature","geometry":{"type":"Point","coordinates":[-90.250199,38.750927]},"properties":{"name":"Keeping the Faith Ministry","address":"2309 Chambers Rd","city":"St. Louis","state":"MO","zip_code":"63136","description":"","phone":"314-395-1144","foodbank_partner":"St. Louis Area Foodbank","days_hours_open":"Tuesday 9:30AM-1PM","verified_by_whom":"yes, SLU PH","cartodb_id":67,"created_at":"2014-04-02T15:53:17Z","updated_at":"2014-05-01T21:54:36Z"}},{"type":"Feature","geometry":{"type":"Point","coordinates":[-90.263248,38.546121]},"properties":{"name":"Grace Hill/Patch Center","address":"7925 Minnesota Avenue","city":"St. Louis","state":"MO","zip_code":"63111","description":"","phone":"314-584-6960","foodbank_partner":"Operation Food Search/St. Louis Area Foodbank","days_hours_open":"Monday-Friday 9:30AM-2PM","verified_by_whom":"yes, SLU PH","cartodb_id":50,"created_at":"2014-04-02T15:53:17Z","updated_at":"2014-05-01T19:03:36Z"}},{"type":"Feature","geometry":{"type":"Point","coordinates":[-90.308499,38.682682]},"properties":{"name":"Grace Lutheran Church","address":"1425 Ferguson Ave","city":"St. Louis","state":"MO","zip_code":"63133","description":"","phone":"314-727-3030","foodbank_partner":"St. Louis Area Foodbank","days_hours_open":"Tuesday/Thursday 11AM-2PM","verified_by_whom":"yes, SLU PH","cartodb_id":51,"created_at":"2014-04-02T15:53:17Z","updated_at":"2014-05-01T19:04:56Z"}},{"type":"Feature","geometry":{"type":"Point","coordinates":[-90.251826,38.552823]},"properties":{"name":"HDC Southside Gateway Center","address":"6827 South Broadway","city":"St. Louis","state":"MO","zip_code":"63111","description":"hdcstl.org","phone":"314-631-0019","foodbank_partner":"","days_hours_open":"","verified_by_whom":"yes, SLU PH","cartodb_id":56,"created_at":"2014-04-02T15:53:17Z","updated_at":"2014-05-01T19:17:21Z"}},{"type":"Feature","geometry":{"type":"Point","coordinates":[-90.213685,38.660127]},"properties":{"name":"Key Life Enrichment Center","address":"2917 Natural Bridge Avenue","city":"St. Louis","state":"MO","zip_code":"63107","description":"","phone":"314-704-5783","foodbank_partner":"St. Louis Area Foodbank","days_hours_open":"3rd Tuesday 6-8PM, 2nd Friday 10AM-2PM, 4th Sunday 2-4PM","verified_by_whom":"yes, SLU PH","cartodb_id":68,"created_at":"2014-04-02T15:53:17Z","updated_at":"2014-05-01T21:54:54Z"}},{"type":"Feature","geometry":{"type":"Point","coordinates":[-90.258535,38.715503]},"properties":{"name":"Keys to Life Tabernacle Christ","address":"6616 W Florissant #1W","city":"St. Louis","state":"MO","zip_code":"63136","description":"","phone":"314-537-3874","foodbank_partner":"St. Louis Area Foodbank","days_hours_open":"Saturday 12-1PM","verified_by_whom":"yes, SLU PH","cartodb_id":69,"created_at":"2014-04-02T15:53:17Z","updated_at":"2014-05-01T21:55:34Z"}},{"type":"Feature","geometry":{"type":"Point","coordinates":[-90.202568,38.615244]},"properties":{"name":"Kingdom House","address":"1321 S. 11th Street","city":"St. Louis","state":"MO","zip_code":"63104","description":"","phone":"314-421-0400","foodbank_partner":"Operation Food Search/St. Louis Area Foodbank","days_hours_open":"Monday-Friday, 10-3PM","verified_by_whom":"","cartodb_id":70,"created_at":"2014-04-02T15:53:17Z","updated_at":"2014-05-01T21:57:06Z"}},{"type":"Feature","geometry":{"type":"Point","coordinates":[-90.234472,38.670325]},"properties":{"name":"Kossuth Food Service","address":"3801 Clarence Ave","city":"St. Louis","state":"MO","zip_code":"63115","description":"","phone":"314-652-4163","foodbank_partner":"Operation Food Search/St. Louis Area Foodbank","days_hours_open":"Thursday 10AM-1PM","verified_by_whom":"yes, SLU PH","cartodb_id":71,"created_at":"2014-04-02T15:53:17Z","updated_at":"2014-05-01T21:57:36Z"}},{"type":"Feature","geometry":{"type":"Point","coordinates":[-90.268424,38.666165]},"properties":{"name":"Neighborhood Outreach Center","address":"5325 Dr. Martin Luther King Dr","city":"St. Louis","state":"MO","zip_code":"63112","description":"","phone":"314-361-7878","foodbank_partner":"Operation Food Search/St. Louis Area Foodbank","days_hours_open":"Monday-Thursday: 9AM-3PM, Friday: 9AM-1PM","verified_by_whom":"yes, SLU PH","cartodb_id":88,"created_at":"2014-04-02T15:53:17Z","updated_at":"2014-05-07T21:56:34Z"}},{"type":"Feature","geometry":{"type":"Point","coordinates":[-90.239688,38.754543]},"properties":{"name":"Oneway Ministries","address":"10117 Lewis & Clark Blvd","city":"Jennings","state":"MO","zip_code":"63136","description":"","phone":"314-388-2288","foodbank_partner":"St. Louis Area Foodbank","days_hours_open":"1st Saturyda 10AM-1PM","verified_by_whom":"yes, SLU PH","cartodb_id":93,"created_at":"2014-04-02T15:53:17Z","updated_at":"2014-05-07T21:57:58Z"}},{"type":"Feature","geometry":{"type":"Point","coordinates":[-90.240271,38.57983]},"properties":{"name":"Our Lady's Inn","address":"4223 S. Compton","city":"St. Louis","state":"MO","zip_code":"63111","description":"residential meal program","phone":"314-351-4590","foodbank_partner":"Operation Food Search","days_hours_open":"","verified_by_whom":"","cartodb_id":97,"created_at":"2014-04-02T15:53:17Z","updated_at":"2014-05-07T21:59:01Z"}},{"type":"Feature","geometry":{"type":"Point","coordinates":[-90.259519,38.650132]},"properties":{"name":"U-City Senior Center","address":"7210 Olive Street","city":"St. Louis","state":"MO","zip_code":"63130","description":"for clients only ","phone":"314-721-2722","foodbank_partner":"Operation Food Search","days_hours_open":"","verified_by_whom":"","cartodb_id":167,"created_at":"2014-04-02T15:53:17Z","updated_at":"2014-05-07T22:03:36Z"}}]}
